T(h:m:s),FT(h:m:s),T(Sec),T(ms),UF(Hz),Sats,Date,Time,Lat,Lon,Alt(Ft),Alt(M),GndSpd(M/S),Head(Deg),PDOP,intT(C),intT(F),extT(C),extT(F),msTemp(C),msTemp(F),msPress(PSI),msPress(ATM),msAlt(ft),msAlt(M),VertVel(Ft/S),VertVel(M/S),mag x,mag y,mag z,accel x,accel y,accel z,gyro x,gyro y,gyro z,orien yaw,orien pitch,orien roll,xbee message,Si humidity (%),Si Temperature (C)3.6.15.1
0:00:12,NA:NA:NA,12.7,12693,0.1,0,4/8/2024,12:26:54,0.000000,0.000000,0.00,0.00,0.000,0.00,9999,26.51,79.72,-273.15,-459.67,26.46,79.63,14.31,0.97,755.64,230.32,0.45,0.14,7.00,-9.50,-23.19,-0.71,0.39,9.59,-0.02,0.03,0.00,359.94,-1.94,-4.00,,26.33,30.92
0:00:13,NA:NA:NA,13.7,13715,1.0,0,4/8/2024,12:26:55,0.000000,0.000000,0.00,0.00,0.000,0.00,9999,26.53,79.76,-273.15,-459.67,26.47,79.65,14.31,0.97,756.20,230.49,0.55,0.17,6.25,-8.19,-25.19,-0.67,0.35,9.60,0.00,-0.01,0.00,359.94,-1.81,-4.12,,26.28,30.92
0:00:14,NA:NA:NA,14.7,14739,1.0,0,4/8/2024,12:26:56,0.000000,0.000000,0.00,0.00,0.000,0.00,9999,26.53,79.76,-273.15,-459.67,26.48,79.66,14.31,0.97,761.51,232.11,5.18,1.58,5.88,-8.50,-24.69,-0.66,0.39,9.57,-0.00,-0.00,0.00,359.94,-1.69,-4.00,,26.24,30.94
0:00:15,NA:NA:NA,15.7,15747,1.0,0,4/8/2024,12:26:57,0.000000,0.000000,0.00,0.00,0.000,0.00,9999,26.56,79.80,-273.15,-459.67,26.50,79.70,14.31,0.97,765.71,233.39,4.17,1.27,7.00,-9.25,-24.25,-0.68,0.39,9.58,0.00,-0.00,-0.00,359.94,-1.69,-4.00,,26.20,30.95
0:00:16,NA:NA:NA,16.8,16753,1.0,0,4/8/2024,12:26:58,0.000000,0.000000,0.00,0.00,0.000,0.00,9999,26.56,79.80,-273.15,-459.67,26.51,79.72,14.31,0.97,767.66,233.98,1.94,0.59,5.19,-8.50,-24.25,-0.67,0.34,9.65,-0.00,-0.00,0.00,359.94,-1.69,-4.00,,26.15,30.98
0:00:17,NA:NA:NA,17.8,17759,1.0,0,4/8/2024,12:26:59,0.000000,0.000000,0.00,0.00,0.000,0.00,9999,26.58,79.84,-273.15,-459.67,26.52,79.74,14.31,0.97,768.78,234.32,1.11,0.34,5.56,-8.50,-24.38,-0.68,0.38,9.60,0.00,-0.00,0.00,359.94,-1.69,-4.00,,26.12,30.99
0:00:18,NA:NA:NA,18.8,18765,1.0,0,4/8/2024,12:27:0,72.931068,2.874859,64068.68,19528.13,0.000,0.00,9999,26.60,79.88,-273.15,-459.67,26.53,79.75,14.31,0.97,765.43,233.30,-3.34,-1.02,7.00,-9.25,-24.00,-0.73,0.39,9.65,0.00,0.01,0.00,359.94,-1.69,-4.00,,26.09,30.98
0:00:19,NA:NA:NA,19.8,19770,1.0,0,4/8/2024,12:27:1,74.586151,3.889996,65164.66,19862.19,0.000,0.00,9999,26.58,79.84,-273.15,-459.67,26.56,79.81,14.31,0.97,765.43,233.30,0.00,0.00,6.69,-8.50,-24.38,-0.65,0.36,9.59,0.00,-0.00,-0.00,359.94,-1.81,-4.00,,26.06,30.96
0:00:20,NA:NA:NA,20.8,20776,1.0,0,4/8/2024,12:27:2,77.289734,8.675843,66736.18,20341.19,0.000,0.00,9999,26.62,79.92,-273.15,-459.67,26.58,79.84,14.31,0.97,762.91,232.54,-2.50,-0.76,6.69,-8.88,-25.19,-0.68,0.37,9.58,0.00,0.00,-0.00,359.94,-1.88,-4.00,,26.06,30.98
0:00:21,NA:NA:NA,21.8,21781,1.0,0,4/8/2024,12:27:3,75.615044,3.176753,65795.30,20054.41,0.000,0.00,9999,26.62,79.92,-273.15,-459.67,26.58,79.84,14.31,0.97,763.19,232.62,0.28,0.08,7.00,-8.06,-23.38,-0.74,0.30,9.67,-0.01,0.01,0.00,359.94,-1.88,-4.06,,26.03,30.96
0:00:22,NA:NA:NA,22.8,22787,1.0,0,4/8/2024,12:27:4,79.944656,3.708986,68003.48,20727.46,0.000,0.00,9999,26.60,79.88,-273.15,-459.67,26.61,79.90,14.31,0.97,759.56,231.51,-3.61,-1.10,6.19,-9.00,-24.25,-0.90,-0.11,9.57,-0.03,-0.01,0.00,0.00,-2.00,-4.12,,26.04,30.94
0:00:23,NA:NA:NA,23.8,23792,1.0,0,4/8/2024,12:27:5,77.579300,3.022086,66887.91,20387.43,0.000,0.00,9999,26.65,79.96,-273.15,-459.67,26.62,79.92,14.31,0.97,757.32,230.83,-2.22,-0.68,7.00,-7.88,-24.69,-0.68,0.41,9.55,0.00,-0.00,-0.00,359.94,-1.94,-4.12,,26.03,30.86
0:00:24,NA:NA:NA,24.8,24798,1.0,0,4/8/2024,12:27:6,75.807243,1.779966,65908.71,20088.97,0.000,0.00,9999,26.65,79.96,-273.15,-459.67,26.64,79.95,14.31,0.97,752.57,229.38,-4.72,-1.44,6.19,-9.38,-25.50,-0.62,-0.04,10.19,-0.10,0.02,-0.01,359.94,-2.00,-4.12,,26.02,30.86
0:00:25,NA:NA:NA,25.8,25803,1.0,0,4/8/2024,12:27:7,69.412735,-0.832540,61420.86,18721.08,0.000,0.00,9999,26.67,80.00,-273.15,-459.67,26.64,79.95,14.31,0.97,753.13,229.55,0.56,0.17,7.00,-8.56,-25.50,0.41,0.54,9.17,0.04,-0.02,0.00,0.00,-2.00,-3.62,,26.03,30.90
0:00:26,NA:NA:NA,26.8,26808,1.0,0,4/8/2024,12:27:8,75.949333,0.680495,65991.66,20114.26,0.000,0.00,9999,26.69,80.04,-273.15,-459.67,26.64,79.95,14.31,0.97,757.04,230.75,3.89,1.19,6.06,-9.38,-23.75,-0.75,0.29,9.73,0.02,0.05,-0.01,0.00,-2.31,-4.06,,26.02,30.96
0:00:27,NA:NA:NA,27.8,27813,1.0,0,4/8/2024,12:27:9,78.196526,0.238542,67200.39,20482.68,0.000,0.00,9999,26.69,80.04,-273.15,-459.67,26.65,79.97,14.31,0.97,755.92,230.40,-1.11,-0.34,6.88,-9.06,-23.88,-0.68,0.46,9.57,-0.02,0.04,0.00,0.00,-2.75,-4.25,,25.99,30.94
0:00:28,NA:NA:NA,28.8,28818,1.0,0,4/8/2024,12:27:10,78.678940,-1.844819,67434.18,20553.94,0.000,0.00,9999,26.71,80.08,-273.15,-459.67,26.66,79.99,14.31,0.97,755.64,230.32,-0.28,-0.08,7.19,-9.38,-23.88,-0.77,0.49,9.61,0.00,0.00,0.00,0.00,-2.94,-4.31,,25.99,30.96
0:00:29,NA:NA:NA,29.8,29826,1.0,0,4/8/2024,12:27:11,78.278870,-2.262702,67240.95,20495.04,0.000,0.00,9999,26.74,80.12,-273.15,-459.67,26.67,80.01,14.31,0.97,756.48,230.58,0.83,0.25,6.50,-10.88,-23.06,-0.74,0.63,9.56,0.00,0.00,-0.00,0.06,-3.75,-4.19,,26.03,30.99
0:00:30,NA:NA:NA,30.8,30831,1.0,0,4/8/2024,12:27:12,78.265999,3.866437,67234.62,20493.11,0.000,0.00,9999,26.74,80.12,-273.15,-459.67,26.68,80.02,14.31,0.97,759.00,231.34,2.50,0.76,7.19,-9.75,-23.88,-0.59,0.75,9.57,0.01,-0.01,0.00,359.44,-3.56,-4.44,,26.05,30.99
0:00:31,NA:NA:NA,31.9,31861,1.0,0,4/8/2024,12:27:13,77.167732,4.975864,66671.27,20321.40,0.000,0.00,9999,26.78,80.21,-273.15,-459.67,26.70,80.06,14.31,0.97,759.56,231.51,0.54,0.17,7.00,-10.75,-23.69,-0.79,0.62,9.58,-0.02,-0.00,-0.00,359.38,-3.38,-4.44,,26.08,30.95
0:00:32,NA:NA:NA,32.9,32893,1.0,0,4/8/2024,12:27:14,77.101364,6.033765,66635.73,20310.57,0.000,0.00,9999,26.78,80.21,-273.15,-459.67,26.71,80.08,14.31,0.97,759.84,231.60,0.27,0.08,7.00,-10.06,-25.25,-0.82,0.42,9.66,0.02,-0.04,0.00,359.38,-2.75,-4.69,,26.11,30.95
0:00:33,NA:NA:NA,33.9,33921,1.0,0,4/8/2024,12:27:15,75.185417,2.619900,65536.77,19975.61,0.000,0.00,9999,26.83,80.29,-273.15,-459.67,26.73,80.11,14.31,0.97,759.28,231.43,-0.54,-0.17,6.19,-11.00,-24.56,-0.77,0.50,9.61,-0.01,0.00,0.00,359.38,-2.94,-4.50,,26.14,31.04
0:00:34,NA:NA:NA,35.0,34951,1.0,0,4/8/2024,12:27:16,75.206306,3.589282,65549.49,19979.49,0.000,0.00,9999,26.83,80.29,-273.15,-459.67,26.74,80.13,14.31,0.97,759.00,231.34,-0.27,-0.08,7.25,-10.56,-24.56,-0.75,0.54,9.56,0.01,-0.00,0.00,359.38,-2.94,-4.62,,26.17,31.09
0:00:35,NA:NA:NA,36.0,35965,1.0,0,4/8/2024,12:27:17,76.749504,-1.155821,66444.41,20252.26,0.000,0.00,9999,26.85,80.33,-273.15,-459.67,26.75,80.15,14.31,0.97,759.84,231.60,0.83,0.25,6.88,-10.56,-25.38,-0.76,0.54,9.52,0.01,0.00,0.00,359.38,-2.75,-4.69,,26.18,31.15
0:00:36,NA:NA:NA,37.0,36976,1.0,0,4/8/2024,12:27:18,77.892822,-3.352086,67048.50,20436.38,0.000,0.00,9999,26.89,80.41,-273.15,-459.67,26.76,80.17,14.31,0.97,759.84,231.60,0.00,0.00,6.56,-9.38,-25.69,-0.83,0.43,9.57,-0.01,0.01,-0.00,359.38,-2.50,-5.06,,26.16,31.23
0:00:37,NA:NA:NA,38.0,37987,1.0,0,4/8/2024,12:27:19,74.194084,-2.992132,64914.02,19785.79,0.000,0.00,9999,26.89,80.41,-273.15,-459.67,26.77,80.19,14.31,0.97,760.12,231.68,0.28,0.08,6.88,-9.06,-25.25,-0.99,0.39,9.55,-0.01,-0.00,-0.02,359.38,-2.56,-5.19,,26.17,31.30
0:00:39,NA:NA:NA,39.0,39000,1.0,0,4/8/2024,12:27:20,75.501366,-2.389250,65727.56,20033.76,0.000,0.00,9999,26.92,80.45,-273.15,-459.67,26.78,80.20,14.31,0.97,761.79,232.19,1.65,0.50,7.19,-9.56,-25.38,-0.90,0.33,9.58,-0.02,0.03,-0.00,359.31,-2.25,-4.88,,26.13,31.30
0:00:40,NA:NA:NA,40.0,40014,1.0,0,4/8/2024,12:27:21,74.289375,3.888906,64975.46,19804.52,0.000,0.00,9999,26.96,80.53,-273.15,-459.67,26.80,80.24,14.31,0.97,754.80,230.06,-6.89,-2.10,6.75,-11.06,-26.69,-0.78,0.31,9.64,-0.00,-0.00,0.00,359.38,-2.06,-4.69,,26.12,31.33
0:00:41,NA:NA:NA,41.0,41024,1.0,0,4/8/2024,12:27:22,71.538536,-0.281316,63071.06,19224.06,0.000,0.00,9999,26.94,80.49,-273.15,-459.67,26.81,80.26,14.31,0.97,752.85,229.47,-1.94,-0.59,6.50,-10.00,-25.56,-0.54,0.43,9.73,-0.01,-0.01,0.00,359.44,-2.12,-4.75,,26.09,31.38
0:00:42,NA:NA:NA,42.0,42035,1.0,0,4/8/2024,12:27:23,75.150902,1.659041,65515.70,19969.18,0.000,0.00,9999,26.96,80.53,-273.15,-459.67,26.81,80.26,14.31,0.97,759.84,231.60,6.91,2.11,5.38,-10.00,-25.19,-0.17,1.11,9.06,-0.08,0.06,0.00,359.31,-2.44,-4.94,,26.05,31.43
0:00:43,NA:NA:NA,43.0,43045,1.0,0,4/8/2024,12:27:24,76.453751,3.691703,66279.91,20202.12,0.000,0.00,9999,26.98,80.57,-273.15,-459.67,26.83,80.29,14.31,0.97,765.71,233.39,5.81,1.77,5.88,-10.00,-26.38,-0.73,0.41,9.56,-0.01,0.01,0.00,359.38,-2.06,-4.75,,26.02,31.44
0:00:44,NA:NA:NA,44.1,44078,1.0,0,4/8/2024,12:27:25,75.835907,1.625835,65925.50,20094.09,0.000,0.00,9999,27.03,80.65,-273.15,-459.67,26.85,80.33,14.31,0.97,763.19,232.62,-2.44,-0.74,6.69,-10.00,-25.19,-0.97,0.33,9.29,0.04,0.01,0.00,359.38,-2.25,-4.75,,26.01,31.51
0:00:45,NA:NA:NA,45.1,45112,1.0,0,4/8/2024,12:27:26,78.186386,-0.530475,67195.38,20481.15,0.000,0.00,9999,27.03,80.65,-273.15,-459.67,26.87,80.37,14.31,0.97,757.60,230.92,-5.40,-1.65,5.38,-10.06,-25.56,-0.82,0.23,9.84,-0.01,0.01,0.00,359.38,-2.50,-4.50,,25.93,31.44
0:00:46,NA:NA:NA,46.1,46146,1.0,0,4/8/2024,12:27:27,74.575912,3.916811,65158.18,19860.21,0.000,0.00,9999,27.07,80.73,-273.15,-459.67,26.87,80.37,14.31,0.97,766.54,233.64,8.65,2.64,6.56,-10.25,-25.56,-0.70,0.39,9.53,0.01,-0.00,0.00,359.38,-2.38,-4.50,,25.89,31.39
0:00:47,NA:NA:NA,47.2,47162,1.0,0,4/8/2024,12:27:28,71.422859,3.190953,62985.17,19197.88,0.000,0.00,9999,27.10,80.77,-273.15,-459.67,26.91,80.44,14.31,0.97,763.19,232.62,-3.30,-1.01,6.19,-11.06,-25.56,-0.72,0.41,9.56,0.00,-0.00,-0.00,359.38,-2.38,-4.44,,25.82,31.40
0:00:48,NA:NA:NA,48.2,48177,1.0,0,4/8/2024,12:27:29,72.813614,0.962313,63987.16,19503.29,0.000,0.00,9999,27.12,80.82,-273.15,-459.67,26.92,80.46,14.31,0.97,762.91,232.54,-0.27,-0.08,7.25,-8.75,-24.38,-0.71,0.40,9.53,-0.00,0.00,0.00,359.38,-2.38,-4.44,,25.75,31.40
0:00:49,NA:NA:NA,49.2,49193,1.0,5,4/8/2024,12:27:30,40.784245,-84.455597,730.17,222.56,0.049,0.00,284,27.14,80.86,-273.15,-459.67,26.93,80.47,14.31,0.97,764.03,232.88,1.10,0.34,6.19,-10.25,-25.19,-0.70,0.36,9.59,-0.00,0.00,0.00,359.38,-2.38,-4.44,,25.73,31.41
0:00:50,NA:NA:NA,50.2,50194,1.0,5,4/8/2024,12:27:32,40.784248,-84.455589,724.71,220.89,0.236,0.00,284,27.19,80.94,-273.15,-459.67,26.94,80.49,14.31,0.97,762.07,232.28,-1.96,-0.60,5.06,-9.19,-25.19,-0.70,0.36,9.58,-0.00,-0.00,0.00,359.38,-2.38,-4.44,,25.64,31.36
0:00:51,NA:NA:NA,51.4,51409,0.8,5,4/8/2024,12:27:33,40.784252,-84.455589,723.32,220.47,0.059,0.00,284,27.19,80.94,-273.15,-459.67,26.96,80.53,14.31,0.97,764.03,232.88,1.61,0.49,5.38,-9.56,-26.00,-0.69,0.31,9.57,0.00,0.00,-0.00,359.38,-2.38,-4.44,,25.64,31.35
0:00:52,NA:NA:NA,52.4,52415,1.0,5,4/8/2024,12:27:34,40.784248,-84.455589,722.15,220.11,0.066,0.00,284,27.23,81.02,-273.15,-459.67,26.98,80.56,14.31,0.97,767.11,233.81,3.06,0.93,6.56,-10.69,-26.00,-0.69,0.39,9.50,-0.01,0.01,0.00,359.38,-2.38,-4.50,,25.62,31.37
0:00:53,NA:NA:NA,53.4,53418,1.0,5,4/8/2024,12:27:35,40.784248,-84.455589,722.36,220.17,0.128,0.00,284,27.26,81.06,-273.15,-459.67,26.99,80.58,14.31,0.97,766.54,233.64,-0.56,-0.17,5.75,-9.56,-25.25,-0.69,0.36,9.61,0.00,0.00,0.00,359.44,-2.00,-4.38,,25.63,31.40
0:00:54,NA:NA:NA,54.4,54422,1.0,5,4/8/2024,12:27:36,40.784248,-84.455582,722.00,220.07,0.032,0.00,284,27.30,81.14,-273.15,-459.67,27.00,80.60,14.31,0.97,763.47,232.71,-3.06,-0.93,6.88,-10.38,-25.25,-0.62,0.35,9.64,0.01,-0.01,0.00,359.44,-2.00,-4.38,,25.63,31.40
0:00:55,NA:NA:NA,55.4,55426,1.0,5,4/8/2024,12:27:37,40.784248,-84.455582,721.61,219.95,0.100,0.00,284,27.32,81.18,-273.15,-459.67,27.01,80.62,14.31,0.97,761.51,232.11,-1.95,-0.60,6.88,-10.38,-23.69,-0.55,0.67,9.43,0.07,0.02,0.00,359.44,-2.38,-4.25,,25.70,31.41
0:00:56,NA:NA:NA,56.4,56431,1.0,5,4/8/2024,12:27:38,40.784248,-84.455582,721.65,219.96,0.209,0.00,284,27.37,81.26,-273.15,-459.67,27.03,80.65,14.31,0.97,759.28,231.43,-2.22,-0.68,5.38,-9.25,-25.25,-0.79,0.54,9.46,-0.02,-0.01,-0.00,359.44,-2.62,-4.44,,25.69,31.38
0:00:57,NA:NA:NA,57.4,57436,1.0,5,4/8/2024,12:27:39,40.784248,-84.455582,722.12,220.10,0.063,0.00,284,27.39,81.30,-273.15,-459.67,27.03,80.65,14.31,0.97,755.36,230.23,-3.89,-1.19,6.19,-10.38,-25.56,-0.64,0.38,9.59,0.00,0.00,0.00,359.44,-2.38,-4.31,,25.70,31.33
0:00:58,NA:NA:NA,58.4,58439,1.0,5,4/8/2024,12:27:40,40.784245,-84.455582,722.16,220.12,0.379,0.00,285,27.41,81.34,-273.15,-459.67,27.02,80.64,14.31,0.97,753.69,229.72,-1.67,-0.51,5.75,-11.19,-24.69,-0.66,0.38,9.59,0.00,0.01,0.00,359.44,-2.38,-4.31,,25.66,31.33
0:00:59,NA:NA:NA,59.4,59445,1.0,5,4/8/2024,12:27:41,40.784241,-84.455582,721.45,219.90,0.548,0.00,285,27.46,81.43,-273.15,-459.67,27.02,80.64,14.31,0.97,755.09,230.15,1.39,0.42,6.56,-11.19,-25.56,-0.69,0.37,9.57,0.00,0.00,-0.00,359.44,-2.38,-4.31,,25.64,31.28
0:01:00,NA:NA:NA,60.4,60449,1.0,5,4/8/2024,12:27:42,40.784237,-84.455574,722.31,220.16,0.156,0.00,285,27.48,81.47,-273.15,-459.67,27.02,80.64,14.31,0.97,758.72,231.26,3.62,1.10,5.75,-10.75,-24.69,-0.67,0.38,9.59,0.00,-0.00,0.00,359.12,-2.44,-4.31,,25.67,31.35
0:01:01,NA:NA:NA,61.5,61453,1.0,5,4/8/2024,12:27:43,40.784237,-84.455566,724.20,220.74,0.326,0.00,285,27.50,81.51,-273.15,-459.67,27.02,80.64,14.31,0.97,757.88,231.00,-0.84,-0.25,5.75,-10.38,-24.69,-0.53,0.45,9.75,0.03,-0.00,0.00,359.12,-2.38,-4.31,,25.64,31.35
0:01:02,NA:NA:NA,62.5,62458,1.0,5,4/8/2024,12:27:44,40.784237,-84.455566,725.06,221.00,0.228,0.00,285,27.53,81.55,-273.15,-459.67,27.01,80.62,14.31,0.97,758.44,231.17,0.56,0.17,5.75,-10.75,-24.50,-0.63,0.62,9.45,0.03,0.01,0.00,359.12,-2.38,-4.12,,25.60,31.35
0:01:03,NA:NA:NA,63.5,63462,1.0,5,4/8/2024,12:27:45,40.784241,-84.455559,726.89,221.55,0.607,0.00,285,27.55,81.59,-273.15,-459.67,27.01,80.62,14.31,0.97,757.60,230.92,-0.83,-0.25,6.75,-11.56,-25.88,-0.90,0.41,9.48,-0.00,0.01,0.00,359.12,-2.31,-4.12,,25.60,31.29
0:01:04,NA:NA:NA,64.5,64467,1.0,5,4/8/2024,12:27:46,40.784241,-84.455559,727.97,221.89,0.183,0.00,285,27.60,81.67,-273.15,-459.67,27.00,80.60,14.31,0.97,752.85,229.47,-4.73,-1.44,6.50,-10.69,-26.25,-0.57,0.31,9.16,-0.02,0.02,0.00,359.12,-1.56,-4.12,,25.60,31.30
0:01:05,NA:NA:NA,65.5,65470,1.0,5,4/8/2024,12:27:47,40.784245,-84.455559,728.89,222.16,0.555,0.00,285,27.69,81.83,-273.15,-459.67,26.97,80.55,14.31,0.97,760.39,231.77,7.52,2.29,5.19,-12.19,-27.19,-0.69,0.30,9.59,0.02,-0.00,0.00,359.94,-1.75,-4.12,,25.53,31.33
0:01:06,NA:NA:NA,66.5,66475,1.0,5,4/8/2024,12:27:48,40.784241,-84.455559,731.24,222.88,0.375,0.00,285,27.62,81.71,-273.15,-459.67,26.97,80.55,14.31,0.97,767.94,234.07,7.51,2.29,6.69,-9.56,-25.56,-0.68,0.27,9.63,-0.00,0.00,0.00,359.94,-1.75,-4.12,,25.48,31.31
0:01:07,NA:NA:NA,67.5,67479,1.0,5,4/8/2024,12:27:49,40.784245,-84.455544,733.19,223.48,0.630,0.00,285,27.66,81.79,-273.15,-459.67,27.00,80.60,14.31,0.97,753.13,229.55,-14.75,-4.50,6.38,-10.56,-26.38,0.20,0.81,9.37,0.10,-0.15,-0.00,359.94,-1.75,-4.00,,25.44,31.30
0:01:08,NA:NA:NA,68.5,68483,1.0,5,4/8/2024,12:27:50,40.784252,-84.455544,733.69,223.63,0.270,0.00,285,27.66,81.79,-273.15,-459.67,26.98,80.56,14.31,0.97,756.20,230.49,3.06,0.93,6.38,-10.25,-26.38,-0.59,0.35,9.55,0.00,-0.01,0.00,359.94,-1.75,-4.00,,25.41,31.35
0:01:09,NA:NA:NA,69.5,69512,1.0,5,4/8/2024,12:27:51,40.784248,-84.455551,733.74,223.64,0.498,0.00,285,27.71,81.88,-273.15,-459.67,26.97,80.55,14.31,0.97,758.72,231.26,2.44,0.74,12.25,-15.56,-41.06,-0.65,0.30,9.61,-0.00,0.00,0.00,359.94,-1.81,-4.00,,25.39,31.31
0:01:10,NA:NA:NA,70.5,70540,1.0,5,4/8/2024,12:27:52,40.784245,-84.455551,736.46,224.47,0.379,0.00,285,27.73,81.92,-273.15,-459.67,26.97,80.55,14.31,0.97,760.95,231.94,2.17,0.66,11.56,-16.00,-39.88,-0.65,0.31,9.57,0.00,0.00,-0.00,359.94,-1.81,-4.00,,25.39,31.39
0:01:11,NA:NA:NA,71.6,71571,1.0,5,4/8/2024,12:27:53,40.784248,-84.455551,736.40,224.46,0.460,0.00,286,27.78,82.00,-273.15,-459.67,26.97,80.55,14.31,0.97,760.95,231.94,0.00,0.00,10.75,-16.75,-41.06,-0.67,0.29,9.63,0.00,0.00,0.00,359.94,-1.81,-4.00,,25.35,31.42
0:01:12,NA:NA:NA,72.6,72600,1.0,5,4/8/2024,12:27:54,40.784252,-84.455544,737.33,224.74,0.598,0.00,286,27.80,82.04,-273.15,-459.67,26.98,80.56,14.31,0.97,760.95,231.94,0.00,0.00,10.75,-16.00,-41.50,-0.74,0.24,9.58,-0.00,0.01,0.00,359.94,-1.81,-4.00,,25.33,31.39
0:01:13,NA:NA:NA,73.6,73612,1.0,5,4/8/2024,12:27:55,40.784256,-84.455544,736.05,224.35,0.292,0.00,286,27.82,82.08,-273.15,-459.67,26.99,80.58,14.31,0.97,759.00,231.34,-1.93,-0.59,11.19,-16.00,-39.88,-0.70,0.30,9.61,-0.01,0.00,-0.00,359.94,-1.81,-4.00,,25.34,31.36
0:01:14,NA:NA:NA,74.6,74622,1.0,5,4/8/2024,12:27:56,40.784248,-84.455544,735.56,224.20,0.258,0.00,286,27.82,82.08,-273.15,-459.67,26.99,80.58,14.31,0.97,754.25,229.89,-4.70,-1.43,11.56,-16.00,-41.06,-0.65,0.27,9.62,-0.01,0.00,0.00,359.94,-1.81,-4.00,,25.34,31.37
0:01:15,NA:NA:NA,75.6,75632,1.0,5,4/8/2024,12:27:57,40.784245,-84.455544,733.88,223.69,0.687,0.00,286,27.89,82.20,-273.15,-459.67,26.98,80.56,14.31,0.97,753.41,229.64,-0.83,-0.25,6.88,-9.56,-25.69,-0.72,0.22,9.61,-0.00,0.00,0.00,0.00,-1.88,-3.88,,25.33,31.37
0:01:16,NA:NA:NA,76.6,76645,1.0,5,4/8/2024,12:27:58,40.784241,-84.455544,733.82,223.67,0.353,0.00,286,27.91,82.24,-273.15,-459.67,26.98,80.56,14.31,0.97,751.45,229.04,-1.93,-0.59,6.56,-10.00,-25.25,-0.26,0.20,9.50,-0.01,0.05,0.00,0.00,-2.06,-3.62,,25.36,31.39
0:01:17,NA:NA:NA,77.7,77658,1.0,5,4/8/2024,12:27:59,40.784241,-84.455544,731.81,223.06,0.297,0.00,286,27.96,82.33,-273.15,-459.67,26.98,80.56,14.32,0.97,741.12,225.89,-10.20,-3.11,6.50,-8.88,-26.25,-1.20,-0.53,9.36,-0.15,0.16,-0.06,0.31,-0.69,-5.62,,25.39,31.41
0:01:18,NA:NA:NA,78.7,78668,1.0,5,4/8/2024,12:28:0,40.784245,-84.455544,729.39,222.32,0.021,0.00,286,27.96,82.33,-273.15,-459.67,26.97,80.55,14.32,0.97,739.16,225.30,-1.94,-0.59,5.25,-9.06,-26.56,0.05,-1.63,7.96,0.14,0.54,-0.07,0.06,-1.50,-5.06,,25.43,31.39
0:01:19,NA:NA:NA,79.7,79680,1.0,5,4/8/2024,12:28:1,40.784248,-84.455544,731.03,222.82,0.170,0.00,286,28.00,82.41,-273.15,-459.67,26.96,80.53,14.32,0.97,738.88,225.21,-0.28,-0.08,7.75,-9.38,-26.00,-0.44,0.64,9.55,0.04,-0.12,-0.02,359.88,-1.62,-5.75,,25.48,31.42
0:01:20,NA:NA:NA,80.7,80693,1.0,5,4/8/2024,12:28:2,40.784245,-84.455544,735.42,224.16,0.189,0.00,286,28.00,82.41,-273.15,-459.67,26.95,80.51,14.32,0.97,738.32,225.04,-0.55,-0.17,6.88,-11.25,-26.38,-0.62,-0.01,9.64,-0.00,0.01,0.03,1.06,-2.12,-4.50,,25.52,31.46
0:01:21,NA:NA:NA,81.7,81725,1.0,5,4/8/2024,12:28:3,40.784245,-84.455544,736.31,224.43,0.113,0.00,286,28.03,82.45,-273.15,-459.67,26.95,80.51,14.32,0.97,737.49,224.79,-0.81,-0.25,5.25,-10.19,-28.56,2.07,1.88,8.74,0.06,-0.09,-0.05,0.94,-1.38,-4.31,,25.57,31.44
0:01:22,NA:NA:NA,82.8,82758,1.0,5,4/8/2024,12:28:4,40.784245,-84.455528,739.68,225.46,0.758,0.00,286,28.05,82.49,-273.15,-459.67,26.95,80.51,14.32,0.97,737.49,224.79,0.00,0.00,5.50,-10.69,-30.06,-0.87,-0.15,9.83,-0.01,-0.01,0.00,0.88,-1.06,-4.69,,25.64,31.48
0:01:23,NA:NA:NA,83.8,83789,1.0,5,4/8/2024,12:28:5,40.784245,-84.455528,740.50,225.71,0.318,0.00,286,28.07,82.53,-273.15,-459.67,26.95,80.51,14.32,0.97,737.49,224.79,0.00,0.00,5.25,-10.88,-28.38,-0.43,0.56,8.78,0.00,-0.31,-0.02,1.00,-1.88,-4.81,,25.67,31.49
0:01:24,NA:NA:NA,84.8,84808,1.0,5,4/8/2024,12:28:6,40.784248,-84.455528,741.31,225.95,0.361,0.00,287,28.07,82.53,-273.15,-459.67,26.95,80.51,14.32,0.97,738.04,224.96,0.54,0.17,4.56,-11.50,-29.75,-0.52,0.43,9.86,-0.04,0.09,0.01,1.94,-1.75,-3.38,,25.77,31.49
0:01:25,NA:NA:NA,85.8,85823,1.0,5,4/8/2024,12:28:7,40.784248,-84.455528,739.68,225.45,0.478,72.20,287,28.10,82.57,-273.15,-459.67,26.95,80.51,14.32,0.97,739.72,225.47,1.65,0.50,7.75,-11.19,-29.75,0.23,0.30,9.15,0.08,-0.17,0.02,1.44,-0.94,-6.44,,25.83,31.56
0:01:26,NA:NA:NA,86.8,86837,1.0,5,4/8/2024,12:28:8,40.784248,-84.455528,738.66,225.15,0.542,72.20,287,28.14,82.65,-273.15,-459.67,26.95,80.51,14.32,0.97,743.07,226.49,3.30,1.01,4.88,-10.75,-31.38,-1.50,-0.43,9.44,-0.00,0.15,0.03,1.06,-0.75,-5.88,,25.89,31.55
0:01:27,NA:NA:NA,87.8,87850,1.0,5,4/8/2024,12:28:9,40.784252,-84.455536,738.67,225.15,0.509,72.20,287,28.16,82.69,-273.15,-459.67,26.96,80.53,14.32,0.97,741.39,225.98,-1.65,-0.50,4.38,-11.25,-30.75,-1.07,-0.01,9.61,0.00,-0.04,0.00,1.12,-1.25,-5.44,,25.98,31.59
0:01:28,NA:NA:NA,88.9,88867,1.0,5,4/8/2024,12:28:10,40.784252,-84.455536,737.72,224.86,0.653,72.20,287,28.19,82.74,-273.15,-459.67,26.96,80.53,14.32,0.97,741.95,226.15,0.55,0.17,4.69,-10.56,-31.25,-0.94,0.15,9.39,0.01,0.19,0.00,0.44,-1.00,-5.69,,26.04,31.59
0:01:29,NA:NA:NA,89.9,89882,1.0,5,4/8/2024,12:28:11,40.784256,-84.455544,735.34,224.13,0.327,72.20,287,28.21,82.78,-273.15,-459.67,26.96,80.53,14.32,0.97,742.51,226.32,0.55,0.17,8.25,-9.69,-31.88,-1.93,0.11,9.39,0.02,-0.17,0.00,357.31,-1.50,-11.50,,26.14,31.56
0:01:30,NA:NA:NA,90.9,90898,1.0,5,4/8/2024,12:28:12,40.784256,-84.455544,732.66,223.31,0.345,72.20,287,28.23,82.82,-273.15,-459.67,26.97,80.55,14.32,0.97,739.16,225.30,-3.30,-1.01,0.69,-11.38,-33.56,-0.38,-0.03,9.90,0.00,0.00,-0.01,353.00,-1.62,-5.62,,26.22,31.59
0:01:31,NA:NA:NA,91.9,91935,1.0,5,4/8/2024,12:28:13,40.784256,-84.455536,733.49,223.57,0.618,61.19,287,28.30,82.94,-273.15,-459.67,26.96,80.53,14.32,0.97,733.29,223.51,-5.66,-1.72,0.50,-11.19,-33.25,-1.06,1.70,11.46,0.08,0.13,-0.01,353.19,-2.06,-5.94,,26.28,31.61
0:01:32,NA:NA:NA,93.0,92971,1.0,5,4/8/2024,12:28:14,40.784256,-84.455536,730.07,222.53,0.408,61.19,287,28.28,82.90,-273.15,-459.67,26.98,80.56,14.32,0.97,737.76,224.87,4.31,1.31,-0.75,-13.19,-34.19,-0.54,0.09,9.06,-0.03,-0.24,-0.01,353.56,-2.94,-6.38,,26.32,31.58
0:01:34,NA:NA:NA,94.0,94010,1.0,5,4/8/2024,12:28:15,40.784256,-84.455536,729.58,222.38,0.237,61.19,287,28.30,82.94,-273.15,-459.67,26.97,80.55,14.32,0.97,737.76,224.87,0.00,0.00,0.69,-12.38,-34.25,-1.24,0.22,9.60,-0.04,0.08,-0.00,353.69,-3.38,-7.31,,26.33,31.61
0:01:35,NA:NA:NA,95.0,95028,1.0,5,4/8/2024,12:28:16,40.784260,-84.455544,729.62,222.39,0.579,61.19,287,28.30,82.94,-273.15,-459.67,26.97,80.55,14.32,0.97,737.49,224.79,-0.27,-0.08,2.69,-13.75,-34.75,-1.53,0.49,9.21,-0.09,0.11,-0.04,352.88,-3.12,-8.94,,26.31,31.58
0:01:36,NA:NA:NA,96.0,96046,1.0,5,4/8/2024,12:28:17,40.784260,-84.455544,730.11,222.54,0.214,61.19,287,28.32,82.98,-273.15,-459.67,26.97,80.55,14.32,0.97,737.76,224.87,0.27,0.08,1.19,-13.25,-35.19,-2.40,-0.04,9.50,0.08,-0.01,0.99,350.88,-3.44,-8.81,,26.24,31.57
0:01:37,NA:NA:NA,97.1,97066,1.0,5,4/8/2024,12:28:18,40.784264,-84.455544,730.17,222.55,1.158,61.19,287,28.37,83.06,-273.15,-459.67,26.97,80.55,14.32,0.97,737.49,224.79,-0.27,-0.08,-0.88,-12.88,-35.06,-0.82,0.37,9.59,0.06,0.09,-0.00,349.25,-3.06,-7.75,,26.18,31.58
0:01:38,NA:NA:NA,98.1,98086,1.0,5,4/8/2024,12:28:19,40.784267,-84.455536,729.12,222.24,0.517,61.19,288,28.37,83.06,-273.15,-459.67,26.98,80.56,14.32,0.97,738.04,224.96,0.54,0.17,-0.75,-13.38,-35.88,-2.06,2.23,6.95,0.23,0.07,0.05,349.12,-3.44,-7.62,,26.14,31.57
0:01:39,NA:NA:NA,99.1,99105,1.0,5,4/8/2024,12:28:20,40.784267,-84.455536,728.75,222.12,0.442,61.19,288,28.41,83.15,-273.15,-459.67,26.98,80.56,14.32,0.97,737.20,224.70,-0.82,-0.25,-2.50,-13.75,-34.69,-1.06,0.48,9.57,-0.01,0.06,-0.00,349.25,-2.75,-6.75,,26.14,31.56
0:01:40,NA:NA:NA,100.1,100107,1.0,5,4/8/2024,12:28:21,40.784271,-84.455536,727.47,221.73,0.292,61.19,288,28.41,83.15,-273.15,-459.67,26.98,80.56,14.32,0.97,738.04,224.96,0.83,0.25,-1.88,-13.06,-34.88,-1.23,0.30,9.29,-0.13,0.08,-0.01,349.75,-2.88,-6.62,,26.13,31.59
0:01:41,NA:NA:NA,101.1,101110,1.0,5,4/8/2024,12:28:22,40.784271,-84.455544,725.95,221.27,0.160,61.19,288,28.44,83.19,-273.15,-459.67,26.98,80.56,14.32,0.97,736.37,224.44,-1.67,-0.51,-1.50,-13.50,-35.69,-0.91,0.50,9.56,-0.00,-0.00,0.00,349.69,-2.81,-6.38,,26.12,31.54
0:01:42,NA:NA:NA,102.1,102110,1.0,5,4/8/2024,12:28:23,40.784267,-84.455544,724.43,220.80,0.223,61.19,288,28.32,82.98,-273.15,-459.67,26.99,80.58,14.32,0.97,737.76,224.87,1.40,0.43,-1.19,-14.19,-35.38,-0.93,0.49,9.61,-0.00,0.00,0.00,349.69,-2.81,-6.25,,26.10,31.54
0:01:43,NA:NA:NA,103.1,103113,1.0,5,4/8/2024,12:28:24,40.784267,-84.455551,723.04,220.38,0.440,61.19,288,28.48,83.27,-273.15,-459.67,26.99,80.58,14.32,0.97,736.65,224.53,-1.11,-0.34,-1.50,-13.88,-35.69,-0.91,0.47,9.54,-0.00,-0.00,0.00,349.69,-2.81,-6.25,,26.11,31.56
0:01:44,NA:NA:NA,104.1,104116,1.0,5,4/8/2024,12:28:25,40.784264,-84.455551,722.30,220.16,0.070,61.19,288,28.48,83.27,-273.15,-459.67,26.99,80.58,14.32,0.97,736.65,224.53,0.00,0.00,-1.50,-13.50,-34.50,-0.96,0.46,9.61,0.00,0.00,0.00,349.69,-2.88,-6.19,,26.14,31.52
0:01:45,NA:NA:NA,105.1,105120,1.0,5,4/8/2024,12:28:26,40.784264,-84.455559,721.03,219.77,0.226,61.19,288,28.41,83.15,-273.15,-459.67,27.00,80.60,14.32,0.97,736.37,224.44,-0.28,-0.08,-1.50,-13.88,-34.88,-1.02,0.40,9.61,0.05,-0.05,0.01,349.69,-2.62,-6.56,,26.18,31.51
0:01:46,NA:NA:NA,106.1,106120,1.0,5,4/8/2024,12:28:27,40.784264,-84.455559,721.47,219.90,0.392,61.19,288,28.53,83.35,-273.15,-459.67,27.00,80.60,14.32,0.97,736.92,224.61,0.56,0.17,-1.25,-15.00,-34.50,0.18,0.69,10.47,0.04,-0.25,0.01,349.75,-2.88,-6.44,,26.27,31.56
0:01:47,NA:NA:NA,107.2,107161,1.0,5,4/8/2024,12:28:28,40.784264,-84.455566,722.12,220.10,0.113,61.19,288,28.53,83.35,-273.15,-459.67,27.01,80.62,14.32,0.97,736.65,224.53,-0.27,-0.08,-2.75,-14.25,-35.25,-0.70,0.45,9.51,0.00,0.01,0.00,351.56,-2.38,-5.56,,26.38,31.59
0:01:48,NA:NA:NA,108.2,108164,1.0,5,4/8/2024,12:28:29,40.784264,-84.455566,721.30,219.85,0.143,61.19,288,28.53,83.35,-273.15,-459.67,27.01,80.62,14.32,0.97,737.76,224.87,1.11,0.34,-1.88,-14.25,-35.25,-0.78,0.46,9.52,0.00,-0.00,-0.00,351.56,-2.44,-5.38,,26.50,31.66
0:01:49,NA:NA:NA,109.2,109166,1.0,5,4/8/2024,12:28:30,40.784260,-84.455566,720.57,219.63,0.249,61.19,288,28.53,83.35,-273.15,-459.67,27.01,80.62,14.32,0.97,736.65,224.53,-1.11,-0.34,-2.00,-13.88,-34.75,-0.93,0.38,9.61,-0.01,0.02,0.00,351.50,-2.25,-5.56,,26.64,31.72
0:01:50,NA:NA:NA,110.2,110166,1.0,6,4/8/2024,12:28:31,40.784260,-84.455559,720.61,219.64,0.073,61.19,257,28.62,83.52,-273.15,-459.67,27.01,80.62,14.32,0.97,737.20,224.70,0.56,0.17,-2.00,-13.88,-35.75,-0.78,0.26,9.77,-0.11,-0.09,0.00,351.56,-2.69,-5.81,,26.79,31.76
0:01:51,NA:NA:NA,111.2,111169,1.0,6,4/8/2024,12:28:32,40.784264,-84.455559,721.84,220.02,0.098,61.19,257,28.55,83.39,-273.15,-459.67,27.02,80.64,14.32,0.97,737.49,224.79,0.28,0.09,-1.00,-15.38,-35.38,0.11,0.86,9.35,0.03,0.06,0.00,351.56,-2.69,-5.38,,26.98,31.81
0:01:52,NA:NA:NA,112.2,112173,1.0,6,4/8/2024,12:28:33,40.784260,-84.455559,721.72,219.98,0.118,61.19,257,28.62,83.52,-273.15,-459.67,27.02,80.64,14.32,0.97,736.92,224.61,-0.56,-0.17,0.06,-19.06,-36.25,-1.13,0.24,9.53,-0.00,-0.00,0.00,0.94,-1.06,-7.06,,27.15,31.84
0:01:53,NA:NA:NA,113.2,113175,1.0,6,4/8/2024,12:28:34,40.784256,-84.455559,719.96,219.44,0.130,61.19,258,28.64,83.56,-273.15,-459.67,27.02,80.64,14.32,0.97,736.65,224.53,-0.28,-0.08,-6.69,20.75,-45.69,-0.78,-6.86,6.73,-0.74,0.06,-0.22,350.31,45.12,-4.44,,27.28,31.74
0:01:54,NA:NA:NA,114.2,114175,1.0,6,4/8/2024,12:28:35,40.784260,-84.455551,720.94,219.74,0.219,61.19,258,28.64,83.56,-273.15,-459.67,27.03,80.65,14.32,0.97,737.76,224.87,1.12,0.34,-8.19,26.56,-42.06,-0.30,-7.47,6.45,0.56,0.01,-0.08,351.56,48.12,-2.62,,27.38,31.66
0:01:55,NA:NA:NA,115.2,115178,1.0,6,4/8/2024,12:28:36,40.784264,-84.455551,721.84,220.02,0.018,61.19,258,28.69,83.64,-273.15,-459.67,27.03,80.65,14.32,0.97,737.49,224.79,-0.28,-0.08,-5.00,-10.25,-50.88,-0.93,-1.20,10.31,0.30,0.03,0.28,350.00,7.19,-6.38,,27.51,31.72
0:01:56,NA:NA:NA,116.2,116182,1.0,6,4/8/2024,12:28:37,40.784264,-84.455551,721.59,219.94,0.201,61.19,258,28.69,83.64,-273.15,-459.67,27.04,80.67,14.32,0.97,736.65,224.53,-0.84,-0.26,-5.25,-14.25,-49.69,-0.41,-0.40,9.45,0.09,-0.10,-0.00,350.12,2.94,-4.56,,27.62,31.72
0:01:57,NA:NA:NA,117.2,117185,1.0,6,4/8/2024,12:28:38,40.784264,-84.455559,720.78,219.69,0.346,61.19,258,28.71,83.68,-273.15,-459.67,27.04,80.67,14.32,0.97,736.92,224.61,0.28,0.08,-6.50,-14.75,-49.69,-0.47,-0.96,9.53,-0.06,0.04,-0.01,350.62,2.75,-4.75,,27.70,31.68
0:01:58,NA:NA:NA,118.2,118185,1.0,6,4/8/2024,12:28:39,40.784264,-84.455559,720.70,219.67,0.202,61.19,258,28.74,83.72,-273.15,-459.67,27.04,80.67,14.32,0.97,736.37,224.44,-0.56,-0.17,-6.56,-14.75,-48.88,-0.73,-0.33,9.60,-0.00,0.01,-0.00,350.56,2.62,-4.62,,27.71,31.60
0:01:59,NA:NA:NA,119.2,119188,1.0,6,4/8/2024,12:28:41,40.784260,-84.455551,721.71,219.98,0.048,61.19,258,28.67,83.60,-273.15,-459.67,27.05,80.69,14.32,0.97,736.92,224.61,0.56,0.17,-4.69,-15.06,-49.69,-0.70,-0.31,9.61,0.01,-0.01,0.00,350.62,2.31,-4.50,,27.81,31.60
0:02:00,NA:NA:NA,120.4,120404,0.8,6,4/8/2024,12:28:42,40.784264,-84.455551,723.31,220.46,0.192,61.19,258,28.76,83.76,-273.15,-459.67,27.05,80.69,14.32,0.97,736.37,224.44,-0.46,-0.14,-6.56,-15.75,-50.06,-0.68,-0.32,9.59,-0.00,0.00,0.00,350.62,2.31,-4.50,,27.85,31.65
0:02:01,NA:NA:NA,121.4,121410,1.0,6,4/8/2024,12:28:43,40.784260,-84.455551,722.47,220.21,0.209,61.19,258,28.78,83.81,-273.15,-459.67,27.05,80.69,14.32,0.97,736.37,224.44,0.00,0.00,-5.06,-14.00,-49.25,-0.67,-0.32,9.59,-0.00,0.00,0.00,350.62,2.31,-4.50,,27.93,31.69
0:02:02,NA:NA:NA,122.4,122416,1.0,6,4/8/2024,12:28:44,40.784260,-84.455551,722.05,220.08,0.191,61.19,258,28.78,83.81,-273.15,-459.67,27.06,80.71,14.32,0.97,735.81,224.27,-0.55,-0.17,-5.06,-15.06,-49.25,-0.62,-0.29,9.61,0.00,-0.01,-0.00,350.62,2.31,-4.50,,27.91,31.68
0:02:03,NA:NA:NA,123.4,123421,1.0,6,4/8/2024,12:28:45,40.784256,-84.455551,721.07,219.78,0.175,61.19,258,28.78,83.81,-273.15,-459.67,27.06,80.71,14.32,0.97,736.92,224.61,1.11,0.34,-6.19,-15.50,-48.88,-0.68,-0.32,9.57,0.00,-0.00,-0.00,350.62,2.31,-4.50,,27.89,31.64
0:02:04,NA:NA:NA,124.4,124426,1.0,6,4/8/2024,12:28:46,40.784260,-84.455551,722.39,220.18,0.348,61.19,258,28.80,83.85,-273.15,-459.67,27.07,80.73,14.32,0.97,736.08,224.36,-0.84,-0.25,-5.38,-15.06,-49.25,-0.70,-0.34,9.61,0.00,0.00,-0.00,350.62,2.31,-4.50,,27.85,31.63
0:02:05,NA:NA:NA,125.4,125430,1.0,6,4/8/2024,12:28:47,40.784264,-84.455551,721.68,219.97,0.217,61.19,258,28.69,83.64,-273.15,-459.67,27.07,80.73,14.32,0.97,737.20,224.70,1.12,0.34,-6.19,-14.75,-49.25,-1.11,-0.44,9.34,-0.10,0.18,0.03,350.56,2.31,-4.44,,27.84,31.64
0:02:06,NA:NA:NA,126.4,126436,1.0,6,4/8/2024,12:28:48,40.784264,-84.455551,722.32,220.16,0.326,61.19,258,28.83,83.89,-273.15,-459.67,27.08,80.74,14.32,0.97,736.08,224.36,-1.11,-0.34,-6.19,-16.19,-48.50,-0.73,-0.01,9.47,-0.10,0.03,-0.01,350.12,1.50,-4.12,,27.86,31.70
0:02:07,NA:NA:NA,127.4,127440,1.0,7,4/8/2024,12:28:49,40.784260,-84.455551,721.79,220.00,0.024,61.19,219,28.85,83.93,-273.15,-459.67,27.08,80.74,14.32,0.97,736.08,224.36,0.00,0.00,-7.38,-15.50,-50.06,-0.59,-0.11,9.59,0.00,0.00,0.00,350.38,1.00,-3.81,,27.90,31.78
0:02:08,NA:NA:NA,128.4,128444,1.0,7,4/8/2024,12:28:50,40.784260,-84.455551,721.31,219.86,0.260,61.19,219,28.85,83.93,-273.15,-459.67,27.08,80.74,14.32,0.97,736.08,224.36,0.00,0.00,-6.25,-14.75,-49.25,-0.56,-0.10,9.60,0.00,-0.00,-0.00,350.38,0.94,-3.75,,27.92,31.81
0:02:09,NA:NA:NA,129.4,129449,1.0,7,4/8/2024,12:28:51,40.784260,-84.455551,720.87,219.72,0.113,61.19,219,28.87,83.97,-273.15,-459.67,27.08,80.74,14.32,0.97,735.81,224.27,-0.28,-0.08,-6.25,-16.56,-49.69,-0.58,-0.11,9.59,0.00,-0.01,-0.00,350.38,0.94,-3.69,,27.90,31.78
0:02:10,NA:NA:NA,130.5,130455,1.0,7,4/8/2024,12:28:52,40.784260,-84.455551,720.60,219.64,0.009,61.19,219,28.87,83.97,-273.15,-459.67,27.09,80.76,14.32,0.97,736.65,224.53,0.83,0.25,7.38,-13.75,-41.56,-0.60,-0.14,9.59,0.01,-0.00,0.00,350.38,0.94,-3.75,,27.90,31.80
0:02:11,NA:NA:NA,131.5,131459,1.0,7,4/8/2024,12:28:53,40.784260,-84.455551,720.67,219.66,0.129,61.19,219,28.90,84.01,-273.15,-459.67,27.09,80.76,14.32,0.97,736.92,224.61,0.28,0.08,7.06,-12.25,-41.19,-0.59,-0.10,9.60,-0.00,-0.00,0.00,350.38,0.94,-3.75,,27.94,31.84
0:02:12,NA:NA:NA,132.5,132465,1.0,7,4/8/2024,12:28:54,40.784260,-84.455551,720.84,219.71,0.116,61.19,220,28.92,84.05,-273.15,-459.67,27.10,80.78,14.32,0.97,736.65,224.53,-0.28,-0.08,8.19,-13.38,-42.38,-0.60,-0.11,9.58,-0.00,0.00,0.00,350.38,0.94,-3.75,,27.95,31.90
0:02:13,NA:NA:NA,133.5,133470,1.0,7,4/8/2024,12:28:55,40.784260,-84.455551,721.16,219.81,0.116,61.19,220,28.92,84.05,-273.15,-459.67,27.10,80.78,14.32,0.97,736.92,224.61,0.28,0.08,7.75,-13.38,-42.00,-0.61,-0.13,9.60,0.00,0.00,0.00,350.38,0.94,-3.75,,27.95,31.97
0:02:14,NA:NA:NA,134.5,134475,1.0,7,4/8/2024,12:28:56,40.784260,-84.455551,721.53,219.92,0.062,61.19,220,28.92,84.05,-273.15,-459.67,27.11,80.80,14.32,0.97,736.65,224.53,-0.28,-0.08,7.75,-11.88,-42.00,-0.60,-0.11,9.58,0.00,0.00,0.00,350.38,0.94,-3.75,,27.96,32.02
0:02:15,NA:NA:NA,135.5,135479,1.0,7,4/8/2024,12:28:57,40.784256,-84.455551,721.62,219.95,0.058,61.19,220,28.96,84.14,-273.15,-459.67,27.11,80.80,14.32,0.97,736.37,224.44,-0.28,-0.08,7.06,-13.00,-40.75,-0.57,-0.11,9.59,-0.00,0.00,0.00,350.38,0.94,-3.75,,27.99,32.10
0:02:16,NA:NA:NA,136.5,136484,1.0,7,4/8/2024,12:28:58,40.784256,-84.455551,721.73,219.98,0.068,61.19,220,28.87,83.97,-273.15,-459.67,27.12,80.82,14.32,0.97,736.08,224.36,-0.28,-0.09,7.38,-12.56,-42.00,-0.59,-0.11,9.58,0.00,-0.00,-0.00,350.38,0.94,-3.75,,28.00,32.08
0:02:17,NA:NA:NA,137.5,137513,1.0,7,4/8/2024,12:28:59,40.784256,-84.455551,722.10,220.10,0.041,61.19,220,29.01,84.22,-273.15,-459.67,27.12,80.82,14.32,0.97,736.65,224.53,0.55,0.17,8.56,-12.25,-41.56,-0.60,-0.11,9.61,-0.00,-0.00,-0.00,350.38,0.94,-3.75,,28.00,32.14
0:02:18,NA:NA:NA,138.5,138542,1.0,7,4/8/2024,12:29:0,40.784256,-84.455551,721.94,220.05,0.084,61.19,220,29.01,84.22,-273.15,-459.67,27.12,80.82,14.32,0.97,736.37,224.44,-0.27,-0.08,7.75,-13.00,-41.56,-0.59,-0.11,9.59,0.00,-0.00,0.00,350.38,0.94,-3.75,,28.03,32.19
0:02:19,NA:NA:NA,139.6,139570,1.0,8,4/8/2024,12:29:1,40.784256,-84.455551,722.13,220.10,0.071,61.19,215,29.01,84.22,-273.15,-459.67,27.13,80.83,14.32,0.97,736.65,224.53,0.27,0.08,8.56,-12.25,-42.00,-0.62,-0.13,9.62,-0.00,0.00,-0.00,350.38,0.94,-3.75,,28.04,32.24
0:02:20,NA:NA:NA,140.6,140598,1.0,8,4/8/2024,12:29:2,40.784256,-84.455551,721.79,220.00,0.065,61.19,215,29.01,84.22,-273.15,-459.67,27.13,80.83,14.32,0.97,736.65,224.53,0.00,0.00,7.38,-11.88,-42.38,-0.60,-0.11,9.61,-0.00,0.00,0.00,350.38,0.94,-3.75,,28.01,32.25
0:02:21,NA:NA:NA,141.6,141612,1.0,8,4/8/2024,12:29:3,40.784256,-84.455551,721.69,219.97,0.070,61.19,215,29.10,84.38,-273.15,-459.67,27.13,80.83,14.32,0.97,736.92,224.61,0.27,0.08,8.19,-13.38,-41.56,-0.59,-0.11,9.58,-0.00,0.00,0.00,350.38,0.94,-3.75,,27.94,32.26
0:02:22,NA:NA:NA,142.6,142623,1.0,8,4/8/2024,12:29:4,40.784256,-84.455551,722.38,220.18,0.049,61.19,216,29.03,84.26,-273.15,-459.67,27.14,80.85,14.32,0.97,736.92,224.61,0.00,0.00,8.19,-12.25,-41.56,-0.60,-0.12,9.62,0.00,-0.00,0.00,350.38,0.94,-3.75,,27.88,32.29
0:02:23,NA:NA:NA,143.6,143633,1.0,8,4/8/2024,12:29:5,40.784256,-84.455551,722.16,220.12,0.058,61.19,216,29.06,84.30,-273.15,-459.67,27.15,80.87,14.32,0.97,737.20,224.70,0.28,0.08,7.75,-12.25,-41.25,-0.56,-0.08,9.57,-0.00,0.00,-0.00,350.38,0.94,-3.69,,27.81,32.34
0:02:24,NA:NA:NA,144.6,144645,1.0,8,4/8/2024,12:29:6,40.784256,-84.455551,721.88,220.03,0.017,61.19,216,29.08,84.34,-273.15,-459.67,27.15,80.87,14.32,0.97,736.65,224.53,-0.55,-0.17,7.75,-13.00,-42.38,-0.59,-0.10,9.61,0.00,-0.00,-0.00,350.38,0.94,-3.69,,27.74,32.40
0:02:25,NA:NA:NA,145.7,145654,1.0,8,4/8/2024,12:29:7,40.784256,-84.455559,721.46,219.90,0.022,61.19,216,29.15,84.47,-273.15,-459.67,27.15,80.87,14.32,0.97,736.08,224.36,-0.56,-0.17,8.19,-12.25,-40.75,-0.58,-0.11,9.62,0.00,-0.00,0.00,350.38,0.94,-3.69,,27.69,32.47
0:02:26,NA:NA:NA,146.7,146666,1.0,8,4/8/2024,12:29:8,40.784256,-84.455559,721.55,219.93,0.065,61.19,216,29.08,84.34,-273.15,-459.67,27.16,80.89,14.32,0.97,735.81,224.27,-0.27,-0.08,7.75,-12.56,-40.88,-0.60,-0.12,9.63,-0.00,0.00,-0.00,350.38,0.94,-3.75,,27.64,32.46
0:02:27,NA:NA:NA,147.7,147679,1.0,9,4/8/2024,12:29:9,40.784252,-84.455559,721.48,219.91,0.081,61.19,199,29.10,84.38,-273.15,-459.67,27.16,80.89,14.32,0.97,736.92,224.61,1.10,0.34,8.19,-13.38,-41.25,-0.58,-0.11,9.64,0.01,-0.01,-0.00,350.38,0.88,-3.69,,27.55,32.46
0:02:28,NA:NA:NA,148.7,148690,1.0,10,4/8/2024,12:29:10,40.784252,-84.455559,721.60,219.94,0.083,61.19,182,29.15,84.47,-273.15,-459.67,27.17,80.91,14.32,0.97,736.65,224.53,-0.28,-0.08,6.69,-12.56,-42.38,-0.59,-0.06,9.59,0.01,-0.01,-0.00,350.38,0.88,-3.69,,27.47,32.46
0:02:29,NA:NA:NA,149.7,149723,1.0,10,4/8/2024,12:29:11,40.784252,-84.455559,722.09,220.09,0.084,61.19,182,29.13,84.43,-273.15,-459.67,27.17,80.91,14.32,0.97,736.65,224.53,0.00,0.00,8.19,-12.56,-40.88,-0.60,-0.09,9.61,-0.00,0.00,-0.00,350.38,0.88,-3.69,,27.41,32.53
0:02:30,NA:NA:NA,150.8,150757,1.0,10,4/8/2024,12:29:12,40.784256,-84.455559,722.34,220.17,0.022,61.19,182,29.15,84.47,-273.15,-459.67,27.18,80.92,14.32,0.97,736.08,224.36,-0.54,-0.17,8.56,-12.56,-41.56,-0.59,-0.10,9.60,0.00,0.00,0.00,350.38,0.88,-3.69,,27.33,32.58
0:02:31,NA:NA:NA,151.8,151792,1.0,10,4/8/2024,12:29:13,40.784256,-84.455559,722.46,220.21,0.037,61.19,182,29.15,84.47,-273.15,-459.67,27.18,80.92,14.32,0.97,736.92,224.61,0.81,0.25,7.75,-13.38,-40.38,-0.60,-0.10,9.61,-0.00,-0.00,0.00,350.38,0.88,-3.69,,27.31,32.60
0:02:32,NA:NA:NA,152.8,152808,1.0,9,4/8/2024,12:29:14,40.784256,-84.455559,722.83,220.32,0.082,61.19,199,29.15,84.47,-273.15,-459.67,27.18,80.92,14.32,0.97,736.37,224.44,-0.55,-0.17,7.38,-12.56,-42.06,-0.59,-0.10,9.60,0.00,-0.00,0.00,350.38,0.88,-3.69,,27.28,32.63
0:02:33,NA:NA:NA,153.8,153823,1.0,9,4/8/2024,12:29:15,40.784256,-84.455559,722.73,220.29,0.088,61.19,199,29.17,84.51,-273.15,-459.67,27.19,80.94,14.32,0.97,736.65,224.53,0.28,0.08,7.38,-14.06,-40.88,-0.60,-0.13,9.63,0.00,0.00,0.00,350.38,0.88,-3.69,,27.28,32.68
0:02:34,NA:NA:NA,154.8,154837,1.0,10,4/8/2024,12:29:16,40.784256,-84.455559,723.05,220.38,0.132,61.19,196,29.17,84.51,-273.15,-459.67,27.20,80.96,14.32,0.97,736.92,224.61,0.27,0.08,7.75,-13.00,-40.88,-0.59,-0.09,9.64,0.00,-0.01,-0.00,350.38,0.88,-3.69,,27.31,32.71
0:02:35,NA:NA:NA,155.9,155851,1.0,11,4/8/2024,12:29:17,40.784256,-84.455559,723.36,220.48,0.085,61.19,178,29.19,84.55,-273.15,-459.67,27.20,80.96,14.32,0.97,736.08,224.36,-0.83,-0.25,8.19,-13.00,-41.25,-0.60,-0.10,9.59,-0.00,0.00,0.00,350.38,0.94,-3.69,,27.34,32.75
0:02:36,NA:NA:NA,156.9,156866,1.0,11,4/8/2024,12:29:18,40.784256,-84.455551,723.52,220.53,0.051,61.19,178,29.19,84.55,-273.15,-459.67,27.21,80.98,14.32,0.97,736.92,224.61,0.83,0.25,9.69,-13.00,-41.25,-0.60,-0.10,9.59,0.00,-0.00,0.00,350.38,0.94,-3.69,,27.37,32.77
0:02:37,NA:NA:NA,157.9,157881,1.0,12,4/8/2024,12:29:19,40.784252,-84.455551,723.60,220.55,0.091,61.19,165,29.22,84.59,-273.15,-459.67,27.21,80.98,14.32,0.97,736.92,224.61,0.00,0.00,7.38,-12.25,-41.25,-0.59,-0.09,9.60,-0.00,0.00,-0.00,350.38,0.94,-3.69,,27.36,32.75
0:02:38,NA:NA:NA,158.9,158895,1.0,12,4/8/2024,12:29:20,40.784252,-84.455551,724.06,220.69,0.090,61.19,165,29.24,84.63,-273.15,-459.67,27.22,81.00,14.32,0.97,736.65,224.53,-0.27,-0.08,8.19,-12.69,-42.88,-0.59,-0.10,9.57,0.01,0.00,0.00,350.38,0.94,-3.69,,27.36,32.79
0:02:39,NA:NA:NA,159.9,159910,1.0,12,4/8/2024,12:29:21,40.784252,-84.455551,724.39,220.79,0.083,61.19,165,29.24,84.63,-273.15,-459.67,27.22,81.00,14.32,0.97,736.65,224.53,0.00,0.00,5.06,-6.75,-25.88,-0.64,-0.11,9.61,-0.00,-0.01,0.01,350.69,0.94,-3.62,,27.34,32.81
0:02:40,NA:NA:NA,160.9,160947,1.0,12,4/8/2024,12:29:22,40.784252,-84.455559,723.82,220.62,0.180,61.19,165,29.24,84.63,-273.15,-459.67,27.22,81.00,14.32,0.97,736.92,224.61,0.27,0.08,4.25,-7.06,-25.19,-0.63,-0.14,9.60,-0.00,0.00,-0.00,350.62,0.94,-3.62,,27.36,32.89
0:02:41,NA:NA:NA,162.0,161988,1.0,12,4/8/2024,12:29:23,40.784252,-84.455559,723.71,220.59,0.096,61.19,165,29.26,84.67,-273.15,-459.67,27.23,81.01,14.32,0.97,737.49,224.79,0.54,0.16,4.25,-7.06,-24.75,-0.66,-0.12,9.63,-0.00,0.00,0.00,350.62,0.94,-3.62,,27.34,32.97
0:02:43,NA:NA:NA,163.0,163031,1.0,12,4/8/2024,12:29:24,40.784252,-84.455559,723.65,220.57,0.062,61.19,165,29.26,84.67,-273.15,-459.67,27.23,81.01,14.32,0.97,736.08,224.36,-1.34,-0.41,4.25,-7.06,-26.38,-0.62,-0.11,9.64,0.00,-0.00,-0.00,350.62,0.94,-3.62,,27.31,32.94
0:02:44,NA:NA:NA,164.1,164051,1.0,12,4/8/2024,12:29:25,40.784252,-84.455559,722.59,220.24,0.096,61.19,165,29.29,84.72,-273.15,-459.67,27.24,81.03,14.32,0.97,736.92,224.61,0.82,0.25,4.50,-7.38,-25.06,-0.61,-0.11,9.58,0.00,-0.00,0.00,350.75,1.00,-3.69,,27.26,32.92
0:02:45,NA:NA:NA,165.1,165072,1.0,12,4/8/2024,12:29:26,40.784252,-84.455559,722.69,220.28,0.171,61.19,165,29.29,84.72,-273.15,-459.67,27.24,81.03,14.32,0.97,737.49,224.79,0.55,0.17,5.25,-7.00,-24.69,-0.64,-0.13,9.62,-0.01,0.01,-0.00,350.75,1.00,-3.69,,27.17,32.93
0:02:46,NA:NA:NA,166.1,166091,1.0,12,4/8/2024,12:29:27,40.784248,-84.455559,722.78,220.30,0.049,61.19,165,29.31,84.76,-273.15,-459.67,27.25,81.05,14.32,0.97,737.20,224.70,-0.28,-0.08,5.25,-7.00,-25.06,-0.63,-0.10,9.61,-0.00,0.00,0.00,350.75,1.00,-3.69,,27.11,33.00
0:02:47,NA:NA:NA,167.1,167092,1.0,12,4/8/2024,12:29:28,40.784248,-84.455559,723.21,220.43,0.056,61.19,165,29.29,84.72,-273.15,-459.67,27.25,81.05,14.32,0.97,736.65,224.53,-0.56,-0.17,5.25,-9.19,-25.06,-0.64,-0.11,9.63,0.00,-0.00,0.00,350.75,1.00,-3.69,,26.99,32.97
0:02:48,NA:NA:NA,168.1,168111,1.0,12,4/8/2024,12:29:29,40.784248,-84.455559,723.14,220.41,0.051,61.19,165,29.31,84.76,-273.15,-459.67,27.26,81.07,14.32,0.97,736.65,224.53,0.00,0.00,4.50,-8.50,-25.06,-0.61,-0.12,9.60,0.00,0.00,0.00,350.75,1.00,-3.69,,26.91,32.97
0:02:49,NA:NA:NA,169.1,169113,1.0,12,4/8/2024,12:29:30,40.784248,-84.455559,722.75,220.29,0.061,61.19,165,29.31,84.76,-273.15,-459.67,27.26,81.07,14.32,0.97,736.08,224.36,-0.56,-0.17,4.06,-7.38,-24.69,-0.62,-0.11,9.62,0.00,0.00,0.00,350.75,0.94,-3.69,,26.79,32.98
0:02:50,NA:NA:NA,170.1,170117,1.0,12,4/8/2024,12:29:31,40.784248,-84.455559,722.93,220.35,0.026,61.19,165,29.33,84.80,-273.15,-459.67,27.27,81.09,14.32,0.97,736.92,224.61,0.84,0.26,6.75,-7.00,-24.25,-0.65,-0.12,9.58,0.00,-0.00,-0.00,350.75,0.94,-3.69,,26.68,33.06
0:02:51,NA:NA:NA,171.1,171119,1.0,12,4/8/2024,12:29:32,40.784248,-84.455559,723.01,220.37,0.041,61.19,165,29.36,84.84,-273.15,-459.67,27.27,81.09,14.32,0.97,735.81,224.27,-1.11,-0.34,4.50,-7.38,-24.69,-0.64,-0.11,9.60,0.00,0.00,0.00,350.75,0.94,-3.69,,26.53,33.07
0:02:52,NA:NA:NA,172.1,172120,1.0,13,4/8/2024,12:29:33,40.784248,-84.455559,723.09,220.40,0.064,61.19,164,29.38,84.88,-273.15,-459.67,27.28,81.10,14.32,0.97,736.37,224.44,0.56,0.17,5.25,-7.75,-23.88,-0.63,-0.11,9.62,0.00,-0.01,0.00,350.75,0.94,-3.69,,26.38,33.18
0:02:53,NA:NA:NA,173.1,173122,1.0,13,4/8/2024,12:29:34,40.784248,-84.455559,723.25,220.45,0.121,61.19,164,29.38,84.88,-273.15,-459.67,27.28,81.10,14.32,0.97,736.08,224.36,-0.28,-0.09,5.25,-8.50,-24.25,-0.64,-0.12,9.62,0.00,-0.01,0.00,350.75,0.94,-3.69,,26.25,33.22
0:02:54,NA:NA:NA,174.1,174123,1.0,13,4/8/2024,12:29:35,40.784248,-84.455559,722.58,220.24,0.090,61.19,164,29.38,84.88,-273.15,-459.67,27.29,81.12,14.32,0.97,735.53,224.19,-0.56,-0.17,4.50,-7.38,-25.88,-0.64,-0.10,9.60,-0.00,0.00,0.00,350.75,0.88,-3.56,,26.12,33.30
0:02:55,NA:NA:NA,175.1,175124,1.0,13,4/8/2024,12:29:36,40.784245,-84.455559,723.03,220.38,0.071,61.19,164,29.38,84.88,-273.15,-459.67,27.29,81.12,14.32,0.97,735.81,224.27,0.28,0.09,4.50,-8.50,-23.88,-0.60,-0.05,9.57,0.01,-0.01,-0.00,350.81,0.81,-3.56,,26.00,33.27
0:02:56,NA:NA:NA,176.1,176127,1.0,13,4/8/2024,12:29:37,40.784245,-84.455559,723.49,220.52,0.072,61.19,164,29.42,84.96,-273.15,-459.67,27.30,81.14,14.32,0.97,736.37,224.44,0.56,0.17,4.88,-7.75,-24.69,-0.81,-0.18,9.69,0.00,0.00,-0.00,350.94,0.69,-3.56,,25.83,33.15
0:02:57,NA:NA:NA,177.1,177130,1.0,13,4/8/2024,12:29:38,40.784245,-84.455559,723.68,220.58,0.213,61.19,164,29.40,84.92,-273.15,-459.67,27.30,81.14,14.32,0.97,736.92,224.61,0.56,0.17,4.06,-8.19,-26.00,-0.67,-0.08,9.62,0.00,0.00,0.00,350.81,0.69,-3.44,,25.71,33.16
0:02:58,NA:NA:NA,178.1,178134,1.0,13,4/8/2024,12:29:39,40.784245,-84.455559,723.91,220.65,0.093,61.19,164,29.42,84.96,-273.15,-459.67,27.31,81.16,14.32,0.97,735.81,224.27,-1.11,-0.34,4.00,-7.06,-24.06,-0.57,-0.11,9.64,-0.00,-0.00,0.00,350.31,0.38,-3.00,,25.64,33.20
0:02:59,NA:NA:NA,179.1,179139,1.0,13,4/8/2024,12:29:40,40.784245,-84.455559,723.76,220.60,0.044,61.19,164,29.45,85.01,-273.15,-459.67,27.31,81.16,14.32,0.97,736.65,224.53,0.83,0.25,4.38,-8.19,-22.50,-0.55,-0.05,9.61,-0.00,0.01,0.00,350.31,0.38,-3.00,,25.57,33.21
0:03:00,NA:NA:NA,180.1,180143,1.0,13,4/8/2024,12:29:41,40.784245,-84.455559,724.10,220.71,0.225,61.19,164,29.45,85.01,-273.15,-459.67,27.31,81.16,14.32,0.97,736.37,224.44,-0.28,-0.08,3.25,-7.88,-24.50,-0.57,-0.12,9.62,0.00,-0.01,-0.00,350.31,0.38,-2.94,,25.54,33.17
0:03:01,NA:NA:NA,181.1,181147,1.0,13,4/8/2024,12:29:42,40.784245,-84.455559,724.61,220.86,0.045,61.19,164,29.45,85.01,-273.15,-459.67,27.32,81.18,14.32,0.97,736.65,224.53,0.28,0.08,4.06,-7.88,-24.50,-0.55,-0.02,9.57,0.01,-0.02,0.00,350.31,0.25,-2.75,,25.42,33.03
0:03:02,NA:NA:NA,182.2,182151,1.0,13,4/8/2024,12:29:43,40.784241,-84.455566,724.80,220.92,0.034,61.19,164,29.45,85.01,-273.15,-459.67,27.32,81.18,14.32,0.97,736.92,224.61,0.28,0.08,4.88,-8.19,-24.06,-0.51,-0.07,9.63,-0.01,-0.00,0.00,350.31,0.19,-2.75,,25.32,32.88
0:03:03,NA:NA:NA,183.2,183153,1.0,13,4/8/2024,12:29:44,40.784241,-84.455566,724.56,220.85,0.042,61.19,164,29.45,85.01,-273.15,-459.67,27.33,81.19,14.32,0.97,736.92,224.61,0.00,0.00,3.75,-7.06,-24.88,-0.51,-0.05,9.60,0.00,0.01,-0.00,350.31,0.19,-2.88,,25.28,32.93
0:03:04,NA:NA:NA,184.2,184155,1.0,13,4/8/2024,12:29:45,40.784241,-84.455566,724.35,220.78,0.060,61.19,164,29.47,85.05,-273.15,-459.67,27.33,81.19,14.32,0.97,736.65,224.53,-0.28,-0.08,4.06,-7.88,-24.50,-0.58,-0.09,9.60,0.00,-0.00,0.00,350.31,0.19,-2.88,,25.27,33.03
0:03:05,NA:NA:NA,185.2,185157,1.0,13,4/8/2024,12:29:46,40.784237,-84.455566,724.84,220.93,0.108,61.19,164,29.47,85.05,-273.15,-459.67,27.34,81.21,14.32,0.97,736.37,224.44,-0.28,-0.09,4.50,-7.88,-24.88,-0.57,-0.09,9.60,0.00,-0.00,-0.00,350.31,0.19,-2.94,,25.19,33.03
0:03:06,NA:NA:NA,186.2,186160,1.0,13,4/8/2024,12:29:47,40.784237,-84.455566,725.24,221.05,0.102,61.19,164,29.49,85.09,-273.15,-459.67,27.34,81.21,14.32,0.97,737.49,224.79,1.12,0.34,4.06,-7.50,-24.88,-0.58,-0.08,9.58,0.00,0.00,0.00,350.31,0.19,-2.94,,25.15,33.03
0:03:07,NA:NA:NA,187.2,187163,1.0,13,4/8/2024,12:29:48,40.784233,-84.455566,725.44,221.11,0.084,61.19,164,29.54,85.17,-273.15,-459.67,27.35,81.23,14.32,0.97,737.20,224.70,-0.28,-0.09,3.38,-7.50,-25.69,-0.56,-0.09,9.60,0.00,-0.00,-0.00,350.31,0.19,-2.94,,25.12,33.02
0:03:08,NA:NA:NA,188.2,188167,1.0,13,4/8/2024,12:29:49,40.784233,-84.455566,725.50,221.13,0.114,61.19,164,29.54,85.17,-273.15,-459.67,27.35,81.23,14.32,0.97,736.92,224.61,-0.28,-0.09,4.06,-8.56,-24.50,-0.57,-0.10,9.61,0.00,-0.00,0.00,350.31,0.19,-2.94,,25.11,33.03
0:03:09,NA:NA:NA,189.2,189168,1.0,14,4/8/2024,12:29:50,40.784233,-84.455566,725.23,221.05,0.044,61.19,140,29.54,85.17,-273.15,-459.67,27.36,81.25,14.32,0.97,736.92,224.61,0.00,0.00,2.69,-7.50,-25.25,-0.56,-0.08,9.57,-0.00,0.01,-0.00,350.31,0.19,-2.94,,25.12,33.00
0:03:10,NA:NA:NA,190.2,190169,1.0,14,4/8/2024,12:29:51,40.784233,-84.455566,724.68,220.88,0.021,61.19,140,29.54,85.17,-273.15,-459.67,27.36,81.25,14.32,0.97,736.37,224.44,-0.56,-0.17,3.06,-7.88,-24.88,-0.59,-0.09,9.58,-0.00,0.01,0.00,350.31,0.19,-2.94,,25.16,33.01
0:03:11,NA:NA:NA,191.2,191172,1.0,14,4/8/2024,12:29:52,40.784233,-84.455566,724.37,220.79,0.064,61.19,140,29.52,85.13,-273.15,-459.67,27.37,81.27,14.32,0.97,736.08,224.36,-0.28,-0.09,7.75,-12.69,-41.25,-0.56,-0.07,9.61,0.00,-0.00,0.00,350.31,0.19,-2.94,,25.18,32.99
0:03:12,NA:NA:NA,192.2,192177,1.0,14,4/8/2024,12:29:53,40.784233,-84.455574,723.82,220.62,0.049,61.19,140,29.56,85.21,-273.15,-459.67,27.37,81.27,14.32,0.97,737.20,224.70,1.11,0.34,6.69,-13.38,-41.75,-0.56,-0.10,9.61,0.00,-0.01,-0.00,350.31,0.19,-2.94,,25.22,32.98
0:03:13,NA:NA:NA,193.2,193180,1.0,14,4/8/2024,12:29:54,40.784229,-84.455574,723.41,220.49,0.045,61.19,140,29.56,85.21,-273.15,-459.67,27.38,81.28,14.32,0.97,736.92,224.61,-0.28,-0.09,7.38,-13.00,-42.06,-0.60,-0.10,9.63,-0.00,0.00,0.00,350.31,0.12,-2.88,,25.26,32.93
0:03:14,NA:NA:NA,194.2,194183,1.0,12,4/8/2024,12:29:55,40.784229,-84.455566,722.72,220.28,0.531,61.19,204,29.56,85.21,-273.15,-459.67,27.38,81.28,14.32,0.97,736.65,224.53,-0.28,-0.08,6.69,-12.69,-40.88,-0.53,-0.04,9.58,-0.02,0.01,0.00,350.31,0.19,-2.94,,25.27,32.86
0:03:15,NA:NA:NA,195.2,195183,1.0,12,4/8/2024,12:29:56,40.784229,-84.455559,723.15,220.42,0.109,61.19,204,29.59,85.26,-273.15,-459.67,27.39,81.30,14.32,0.97,737.20,224.70,0.56,0.17,5.00,-8.38,-25.38,-0.58,-0.13,9.61,-0.00,-0.00,-0.00,350.31,0.25,-2.94,,25.25,32.78
0:03:16,NA:NA:NA,196.2,196186,1.0,14,4/8/2024,12:29:57,40.784233,-84.455566,722.82,220.32,0.048,61.19,140,29.66,85.38,-273.15,-459.67,27.39,81.30,14.32,0.97,736.92,224.61,-0.28,-0.09,3.50,-8.06,-24.19,-0.55,-0.07,9.61,-0.00,0.00,-0.00,350.31,0.31,-2.94,,25.25,32.71
0:03:17,NA:NA:NA,197.2,197190,1.0,14,4/8/2024,12:29:58,40.784248,-84.455574,724.31,220.77,0.085,61.19,140,29.59,85.26,-273.15,-459.67,27.40,81.32,14.32,0.97,736.92,224.61,0.00,0.00,3.19,-8.75,-25.69,-0.54,-0.04,9.62,0.00,0.00,0.00,350.31,0.31,-2.94,,25.25,32.71
0:03:18,NA:NA:NA,198.2,198195,1.0,14,4/8/2024,12:29:59,40.784245,-84.455582,722.55,220.23,0.027,61.19,140,29.61,85.30,-273.15,-459.67,27.40,81.32,14.32,0.97,737.20,224.70,0.28,0.08,5.38,-7.25,-25.69,-0.56,-0.09,9.62,0.01,0.00,-0.00,350.31,0.31,-2.94,,25.25,32.66
0:03:19,NA:NA:NA,199.2,199199,1.0,14,4/8/2024,12:30:1,40.784241,-84.455589,721.33,219.86,0.018,61.19,140,29.61,85.30,-273.15,-459.67,27.41,81.34,14.32,0.97,736.92,224.61,-0.28,-0.08,4.56,-7.25,-25.38,-0.55,-0.06,9.62,0.00,0.00,0.00,350.31,0.31,-2.94,,25.18,32.60
0:03:20,NA:NA:NA,200.4,200418,0.8,14,4/8/2024,12:30:2,40.784241,-84.455582,721.19,219.82,0.017,61.19,140,29.63,85.34,-273.15,-459.67,27.41,81.34,14.32,0.97,736.37,224.44,-0.46,-0.14,4.56,-8.06,-25.00,-0.55,-0.09,9.58,0.00,0.00,-0.00,350.31,0.31,-2.94,,25.18,32.64
0:03:21,NA:NA:NA,201.4,201424,1.0,14,4/8/2024,12:30:3,40.784241,-84.455589,720.53,219.62,0.104,61.19,140,29.63,85.34,-273.15,-459.67,27.42,81.36,14.32,0.97,737.76,224.87,1.39,0.42,4.19,-8.06,-24.19,-0.50,-0.10,9.59,-0.00,-0.00,-0.00,350.31,0.31,-2.88,,25.18,32.64
0:03:22,NA:NA:NA,202.4,202430,1.0,14,4/8/2024,12:30:4,40.784237,-84.455589,719.91,219.43,0.036,61.19,140,29.61,85.30,-273.15,-459.67,27.42,81.36,14.32,0.97,736.92,224.61,-0.83,-0.25,4.19,-7.75,-24.88,-0.56,-0.08,9.58,0.00,0.00,-0.00,350.31,0.38,-2.94,,25.19,32.61
0:03:23,NA:NA:NA,203.4,203435,1.0,14,4/8/2024,12:30:5,40.784237,-84.455589,719.15,219.20,0.031,61.19,140,29.66,85.38,-273.15,-459.67,27.42,81.36,14.32,0.97,736.65,224.53,-0.28,-0.08,5.00,-8.50,-24.88,-0.57,-0.10,9.60,0.00,0.00,0.00,350.31,0.38,-3.00,,25.22,32.56
0:03:24,NA:NA:NA,204.4,204440,1.0,14,4/8/2024,12:30:6,40.784237,-84.455589,718.61,219.03,0.059,61.19,140,29.68,85.42,-273.15,-459.67,27.43,81.37,14.32,0.97,736.37,224.44,-0.28,-0.08,4.19,-7.38,-23.25,-0.56,-0.09,9.61,0.00,-0.00,0.00,350.31,0.38,-3.00,,25.26,32.57
0:03:25,NA:NA:NA,205.4,205443,1.0,14,4/8/2024,12:30:7,40.784237,-84.455589,718.12,218.88,0.032,61.19,140,29.66,85.38,-273.15,-459.67,27.44,81.39,14.32,0.97,737.20,224.70,0.83,0.25,3.50,-7.00,-24.06,-0.56,-0.10,9.62,0.00,-0.00,-0.00,350.31,0.38,-3.00,,25.35,32.60
0:03:26,NA:NA:NA,206.4,206448,1.0,14,4/8/2024,12:30:8,40.784237,-84.455589,717.51,218.70,0.029,61.19,140,29.70,85.46,-273.15,-459.67,27.45,81.41,14.32,0.97,736.08,224.36,-1.12,-0.34,5.00,-7.75,-26.38,-0.53,-0.11,9.58,0.00,-0.00,-0.00,350.31,0.38,-3.00,,25.42,32.58
0:03:27,NA:NA:NA,207.5,207452,1.0,15,4/8/2024,12:30:9,40.784237,-84.455589,716.97,218.53,0.110,61.19,132,29.68,85.42,-273.15,-459.67,27.45,81.41,14.32,0.97,735.81,224.27,-0.28,-0.08,3.50,-8.50,-25.25,-0.55,-0.12,9.63,-0.00,0.00,-0.00,350.31,0.38,-3.00,,25.51,32.58
0:03:28,NA:NA:NA,208.5,208457,1.0,15,4/8/2024,12:30:10,40.784237,-84.455589,717.12,218.58,0.035,61.19,132,29.66,85.38,-273.15,-459.67,27.45,81.41,14.32,0.97,736.65,224.53,0.83,0.25,4.19,-7.38,-24.38,-0.56,-0.08,9.61,-0.00,0.00,0.00,350.31,0.38,-3.00,,25.62,32.59
0:03:29,NA:NA:NA,209.5,209461,1.0,15,4/8/2024,12:30:11,40.784237,-84.455589,716.56,218.41,0.063,61.19,132,29.70,85.46,-273.15,-459.67,27.46,81.43,14.32,0.97,735.53,224.19,-1.12,-0.34,5.00,-7.00,-25.25,-0.56,-0.08,9.59,-0.00,0.00,0.00,350.31,0.38,-3.00,,25.73,32.69
0:03:30,NA:NA:NA,210.5,210467,1.0,15,4/8/2024,12:30:12,40.784237,-84.455589,716.71,218.45,0.117,61.19,132,29.75,85.55,-273.15,-459.67,27.46,81.43,14.32,0.97,736.08,224.36,0.56,0.17,3.19,-7.38,-24.88,-0.55,-0.08,9.61,0.00,0.00,0.00,350.31,0.38,-3.00,,25.85,32.72
0:03:31,NA:NA:NA,211.5,211471,1.0,15,4/8/2024,12:30:13,40.784237,-84.455589,716.02,218.24,0.052,61.19,132,29.75,85.55,-273.15,-459.67,27.47,81.45,14.32,0.97,736.37,224.44,0.28,0.09,3.88,-8.50,-24.50,-0.56,-0.10,9.60,0.00,0.00,0.00,350.31,0.38,-3.00,,25.96,32.78
0:03:32,NA:NA:NA,212.5,212475,1.0,15,4/8/2024,12:30:14,40.784237,-84.455589,716.03,218.24,0.024,61.19,132,29.73,85.51,-273.15,-459.67,27.47,81.45,14.32,0.97,735.81,224.27,-0.56,-0.17,3.88,-7.75,-25.25,-0.57,-0.08,9.62,-0.00,-0.00,0.00,350.31,0.38,-3.00,,26.11,32.85
0:03:33,NA:NA:NA,213.5,213481,1.0,15,4/8/2024,12:30:15,40.784237,-84.455589,715.58,218.11,0.066,61.19,132,29.75,85.55,-273.15,-459.67,27.48,81.46,14.32,0.97,736.37,224.44,0.55,0.17,4.19,-8.50,-24.88,-0.55,-0.10,9.60,0.00,0.00,0.00,350.31,0.38,-3.00,,26.21,32.90
0:03:34,NA:NA:NA,214.5,214488,1.0,15,4/8/2024,12:30:16,40.784237,-84.455589,715.23,218.00,0.030,61.19,132,29.77,85.59,-273.15,-459.67,27.48,81.46,14.32,0.97,734.97,224.02,-1.39,-0.42,4.56,-7.38,-24.88,-0.54,-0.10,9.62,0.00,0.00,0.00,350.31,0.38,-3.00,,26.31,32.98
0:03:35,NA:NA:NA,215.5,215497,1.0,15,4/8/2024,12:30:17,40.784237,-84.455589,715.04,217.95,0.129,61.19,132,29.77,85.59,-273.15,-459.67,27.49,81.48,14.32,0.97,736.08,224.36,1.11,0.34,3.50,-8.50,-24.50,-0.54,-0.10,9.62,-0.00,-0.00,0.00,350.31,0.38,-3.00,,26.44,33.03
0:03:36,NA:NA:NA,216.5,216525,1.0,15,4/8/2024,12:30:18,40.784237,-84.455589,714.49,217.78,0.002,61.19,132,29.77,85.59,-273.15,-459.67,27.49,81.48,14.32,0.97,736.37,224.44,0.27,0.08,3.50,-8.88,-23.69,-0.57,-0.11,9.62,0.00,0.00,-0.00,350.31,0.38,-3.00,,26.52,33.11
0:03:37,NA:NA:NA,217.6,217555,1.0,16,4/8/2024,12:30:19,40.784237,-84.455589,713.62,217.51,0.130,61.19,129,29.79,85.63,-273.15,-459.67,27.50,81.50,14.32,0.97,736.65,224.53,0.27,0.08,3.50,-7.75,-24.50,-0.56,-0.11,9.62,0.00,0.00,0.00,350.31,0.38,-3.00,,26.58,33.13
0:03:38,NA:NA:NA,218.6,218584,1.0,16,4/8/2024,12:30:20,40.784237,-84.455589,712.89,217.29,0.049,61.19,129,29.79,85.63,-273.15,-459.67,27.50,81.50,14.32,0.97,735.25,224.10,-1.36,-0.41,4.69,-8.88,-25.25,-0.54,-0.10,9.60,0.01,0.00,-0.00,350.38,0.38,-2.88,,26.59,33.15
0:03:39,NA:NA:NA,219.6,219616,1.0,16,4/8/2024,12:30:21,40.784233,-84.455589,712.40,217.14,0.104,61.19,129,29.79,85.63,-273.15,-459.67,27.51,81.52,14.32,0.97,735.53,224.19,0.27,0.08,4.38,-8.19,-24.06,-0.56,-0.11,9.65,-0.01,0.01,0.00,350.38,0.38,-2.94,,26.58,33.20
0:03:40,NA:NA:NA,220.6,220627,1.0,16,4/8/2024,12:30:22,40.784233,-84.455582,712.08,217.04,0.242,61.19,129,29.79,85.63,-273.15,-459.67,27.51,81.52,14.32,0.97,735.81,224.27,0.28,0.08,3.69,-8.50,-24.88,-0.54,-0.08,9.59,0.00,-0.00,0.00,350.38,0.38,-2.94,,26.57,33.27
0:03:41,NA:NA:NA,221.6,221639,1.0,16,4/8/2024,12:30:23,40.784233,-84.455582,711.77,216.95,0.077,61.19,129,29.82,85.67,-273.15,-459.67,27.52,81.54,14.32,0.97,735.81,224.27,0.00,0.00,4.06,-7.38,-24.50,-0.51,-0.05,9.61,-0.01,0.01,0.00,350.38,0.31,-2.88,,26.52,33.30
0:03:42,NA:NA:NA,222.6,222649,1.0,16,4/8/2024,12:30:24,40.784233,-84.455582,711.43,216.84,0.041,61.19,129,29.84,85.71,-273.15,-459.67,27.52,81.54,14.32,0.97,737.20,224.70,1.38,0.42,3.38,-8.00,-25.25,-0.50,-0.02,9.61,0.00,0.00,0.00,350.50,0.38,-2.88,,26.44,33.32
0:03:43,NA:NA:NA,223.7,223659,1.0,16,4/8/2024,12:30:25,40.784233,-84.455582,711.37,216.82,0.121,61.19,129,29.84,85.71,-273.15,-459.67,27.53,81.55,14.32,0.97,735.53,224.19,-1.66,-0.51,4.06,-8.69,-24.88,-0.54,-0.06,9.62,-0.00,-0.00,0.00,350.50,0.38,-2.88,,26.37,33.36
0:03:44,NA:NA:NA,224.7,224673,1.0,16,4/8/2024,12:30:26,40.784229,-84.455582,711.35,216.82,0.034,61.19,129,29.86,85.76,-273.15,-459.67,27.53,81.55,14.32,0.97,736.37,224.44,0.83,0.25,4.38,-7.19,-25.25,-0.53,-0.10,9.63,-0.00,0.01,-0.00,350.50,0.44,-2.88,,26.25,33.34
0:03:45,NA:NA:NA,225.7,225687,1.0,16,4/8/2024,12:30:27,40.784229,-84.455582,710.76,216.64,0.094,61.19,129,29.86,85.76,-273.15,-459.67,27.54,81.57,14.32,0.97,737.20,224.70,0.83,0.25,5.56,-8.25,-24.88,-0.52,-0.06,9.59,0.00,0.00,0.00,350.50,0.44,-2.88,,26.15,33.41
0:03:46,NA:NA:NA,226.7,226700,1.0,16,4/8/2024,12:30:28,40.784229,-84.455582,710.54,216.57,0.036,61.19,129,29.86,85.76,-273.15,-459.67,27.54,81.57,14.32,0.97,735.81,224.27,-1.38,-0.42,4.75,-8.00,-24.88,-0.53,-0.08,9.61,0.00,-0.00,0.00,350.50,0.44,-2.88,,26.05,33.44
0:03:47,NA:NA:NA,227.7,227735,1.0,16,4/8/2024,12:30:29,40.784229,-84.455582,710.59,216.59,0.080,61.19,129,29.86,85.76,-273.15,-459.67,27.55,81.59,14.32,0.97,736.08,224.36,0.27,0.08,4.38,-7.56,-24.88,-0.52,-0.07,9.59,-0.00,-0.00,-0.00,350.50,0.44,-2.88,,25.96,33.44
0:03:48,NA:NA:NA,228.8,228770,1.0,16,4/8/2024,12:30:30,40.784229,-84.455582,710.36,216.52,0.173,61.19,129,29.89,85.80,-273.15,-459.67,27.55,81.59,14.32,0.97,735.81,224.27,-0.27,-0.08,4.75,-7.56,-24.88,-0.55,-0.09,9.62,0.00,0.00,-0.00,350.50,0.44,-2.88,,25.83,33.47
0:03:49,NA:NA:NA,229.8,229802,1.0,16,4/8/2024,12:30:31,40.784229,-84.455574,710.62,216.60,0.210,61.19,129,29.89,85.80,-273.15,-459.67,27.56,81.61,14.32,0.97,736.08,224.36,0.27,0.08,5.19,-8.25,-26.06,-0.55,-0.06,9.58,0.00,0.00,0.00,350.50,0.44,-2.88,,25.70,33.45
0:03:50,NA:NA:NA,230.8,230817,1.0,16,4/8/2024,12:30:32,40.784233,-84.455582,710.75,216.64,0.149,61.19,129,29.91,85.84,-273.15,-459.67,27.57,81.63,14.32,0.97,734.97,224.02,-1.10,-0.34,4.38,-8.00,-24.50,-0.52,-0.04,9.63,0.00,-0.00,-0.00,350.50,0.44,-2.88,,25.57,33.41
0:03:51,NA:NA:NA,231.8,231831,1.0,17,4/8/2024,12:30:33,40.784233,-84.455582,710.38,216.52,0.005,61.19,126,29.91,85.84,-273.15,-459.67,27.57,81.63,14.32,0.97,736.37,224.44,1.38,0.42,4.38,-8.25,-24.88,-0.54,-0.05,9.62,0.00,0.00,-0.00,350.50,0.44,-2.88,,25.44,33.43
0:03:52,NA:NA:NA,232.8,232846,1.0,17,4/8/2024,12:30:34,40.784233,-84.455582,710.21,216.47,0.023,61.19,126,29.84,85.71,-273.15,-459.67,27.57,81.63,14.32,0.97,735.53,224.19,-0.83,-0.25,4.75,-8.25,-24.88,-0.53,-0.07,9.61,-0.00,0.00,0.00,350.50,0.44,-2.88,,25.31,33.42
0:03:53,NA:NA:NA,233.9,233860,1.0,17,4/8/2024,12:30:35,40.784233,-84.455574,709.32,216.20,0.065,61.19,126,29.91,85.84,-273.15,-459.67,27.58,81.64,14.32,0.97,736.37,224.44,0.83,0.25,4.06,-8.25,-25.69,-0.53,-0.05,9.61,-0.00,0.00,0.00,350.50,0.44,-2.88,,25.19,33.37
0:03:54,NA:NA:NA,234.9,234876,1.0,17,4/8/2024,12:30:36,40.784229,-84.455574,708.87,216.07,0.069,61.19,126,29.93,85.88,-273.15,-459.67,27.59,81.66,14.32,0.97,735.53,224.19,-0.83,-0.25,4.06,-7.19,-25.25,-0.52,-0.07,9.61,0.00,0.00,0.00,350.50,0.44,-2.88,,25.11,33.38
0:03:55,NA:NA:NA,235.9,235890,1.0,17,4/8/2024,12:30:37,40.784229,-84.455574,708.86,216.06,0.034,61.19,126,29.93,85.88,-273.15,-459.67,27.59,81.66,14.32,0.97,735.53,224.19,0.00,0.00,4.38,-7.19,-25.25,-0.53,-0.06,9.60,0.00,-0.00,-0.00,350.50,0.44,-2.88,,25.02,33.36
0:03:56,NA:NA:NA,236.9,236904,1.0,17,4/8/2024,12:30:38,40.784229,-84.455582,708.74,216.02,0.084,61.19,126,29.96,85.92,-273.15,-459.67,27.60,81.68,14.32,0.97,736.08,224.36,0.55,0.17,5.19,-7.56,-23.75,-0.51,-0.05,9.61,-0.00,0.00,0.00,350.50,0.44,-2.88,,24.94,33.40
0:03:57,NA:NA:NA,237.9,237943,1.0,18,4/8/2024,12:30:39,40.784229,-84.455582,708.45,215.93,0.036,61.19,121,29.96,85.92,-273.15,-459.67,27.60,81.68,14.32,0.97,734.69,223.93,-1.34,-0.41,4.06,-8.00,-25.25,-0.52,-0.07,9.62,-0.00,0.00,-0.00,350.50,0.44,-2.88,,24.83,33.35
0:03:58,NA:NA:NA,239.0,238983,1.0,18,4/8/2024,12:30:40,40.784229,-84.455582,708.19,215.85,0.048,61.19,121,29.96,85.92,-273.15,-459.67,27.61,81.70,14.32,0.97,734.97,224.02,0.27,0.08,4.38,-8.00,-24.88,-0.54,-0.05,9.61,0.00,0.00,0.00,350.50,0.44,-2.88,,24.74,33.36
0:04:00,NA:NA:NA,240.0,240021,1.0,18,4/8/2024,12:30:41,40.784229,-84.455582,707.86,215.76,0.072,61.19,121,29.98,85.96,-273.15,-459.67,27.61,81.70,14.32,0.97,737.20,224.70,2.15,0.66,4.06,-8.25,-24.50,-0.54,-0.03,9.64,0.00,-0.00,0.00,350.50,0.44,-2.88,,24.67,33.43
