Packet Number,SIV,FixType,Latitude,Longitude,Altitude,Year,Month,Day,Hour,Min,Sec,NNV,NEV,NDV,Battery,3v3 Supply,5v Supply,Radio Supply,Analog Internal,Analog External,Altimeter Temp,Digital Internal,Digital External,Pressure,Accel A,Accel Y,Accel Z,Pitch,Roll,Yaw
0,0,0,0,0,0,2020,8,2,14,0,2,0,0,0,4.11,3.29,4.99,4.1,19.08,19.59,17.06,17.38,16.96,860.5,-0.19,0.04,9.48,-1.15,0.23,-133.02
1,0,0,0,0,0,2020,8,2,14,0,3,0,0,0,4.11,3.28,4.98,4.1,18.23,19.72,17.06,17.38,16.96,860.67,-0.27,0.23,9.68,-1.58,1.36,-133.81
2,0,0,0,0,0,2020,8,2,14,0,4,0,0,0,4.11,3.29,4.99,4.1,19.04,19.24,17.06,17.42,16.99,860.73,-0.19,0.23,9.06,-1.21,1.45,-133.31
3,0,0,0,0,0,2020,8,2,14,0,5,0,0,0,4.11,3.28,4.98,4.1,18.55,19.62,17.12,17.38,16.98,863.37,-0.15,0.27,9.52,-0.92,1.61,-133.48
4,0,0,0,0,0,2020,8,2,14,0,6,0,0,0,4.12,3.29,4.99,4.1,19.16,19.27,17.03,17.41,16.98,861.03,-0.19,0.15,9.52,-1.15,0.92,-132.98
5,0,0,0,0,0,2020,8,2,14,0,7,0,0,0,4.11,3.28,4.98,4.1,18,19.08,17.04,17.45,16.98,860.87,-0.19,0.19,9.52,-1.15,1.15,-134.19
6,0,0,0,0,0,2020,8,2,14,0,8,0,0,0,4.12,3.29,4.99,4.07,19.43,19.37,17.05,17.47,16.92,860.72,-0.15,0.15,9.52,-0.92,0.92,-133.61
7,0,0,0,0,0,2020,8,2,14,0,9,0,0,0,4.11,3.28,4.98,4.1,19.32,19.32,17.06,17.48,16.93,861.5,-0.19,0.54,9.6,-1.14,3.19,-132.81
8,0,0,0,0,0,2020,8,2,14,0,10,0,0,0,4.11,3.29,4.99,4.1,19.6,19.15,17.05,17.53,16.93,861.82,-0.34,3.6,9.26,-1.99,21.21,-131.81
9,0,0,0,0,0,2020,8,2,14,0,11,0,0,0,4.11,3.28,4.98,4.1,19.92,19.99,16.98,17.55,16.92,859.98,0.31,2.45,9.14,1.85,14.98,-136.89
10,0,0,0,0,0,2020,8,2,14,0,12,0,0,0,4.11,3.29,4.99,4.1,19.75,19.44,16.99,17.63,16.91,860.51,0.42,4.02,8.38,2.59,25.59,-137.01
11,0,0,0,0,0,2020,8,2,14,0,13,0,0,0,4.11,3.28,4.98,4.1,19.7,19.25,17,17.67,16.95,860.97,0.84,7.23,6.43,4.97,48.12,-140.65
12,0,0,0,0,0,2020,8,2,14,0,14,0,0,0,4.11,3.29,4.99,4.1,19.9,19.42,16.99,17.71,16.93,861.36,1.26,7.73,5.7,7.49,52.93,-143.28
13,0,0,0,0,0,2020,8,2,14,0,15,0,0,0,4.06,3.28,4.98,4.1,19.36,19.26,16.99,17.75,16.98,860.86,1.26,7.65,5.89,7.45,51.78,-143.5
14,0,0,0,0,0,2020,8,2,14,0,16,0,0,0,4.11,3.29,4.99,4.1,19.76,19.22,17.06,17.84,16.97,863.59,1.3,7.5,5.81,7.81,51.53,-142.79
15,0,0,0,0,0,2020,8,2,14,0,17,0,0,0,4.11,3.28,4.98,4.1,18.64,19.59,17.04,17.92,16.92,863.26,1.3,7.11,6.27,7.81,48,-143.75
16,0,0,0,0,0,2020,8,2,14,0,18,0,0,0,4.11,3.29,4.99,4.1,18.04,19.18,17.01,17.94,16.91,863.74,1.45,7.15,6.46,8.57,47.19,-143.99
17,0,0,0,0,0,2020,8,2,14,0,19,0,0,0,4.1,3.28,4.98,4.1,20.1,21.74,16.94,17.93,16.85,863.59,1.34,7.42,5.97,8,50.51,-142.8
18,0,0,0,0,0,2020,8,2,14,0,20,0,0,0,4.11,3.29,4.99,4.1,20.45,18.92,16.9,18.02,16.83,863.27,1.19,7.76,5.85,6.95,52.44,-143.4
19,0,0,0,0,0,2020,8,2,14,0,21,0,0,0,4.06,3.28,4.98,4.1,20.4,20.65,16.84,18.07,16.85,861.57,1.38,7.65,5.74,8.19,52.36,-143.55
20,0,0,0,0,0,2020,8,2,14,0,22,0,0,0,4.11,3.29,4.99,4.1,20.5,19.34,16.85,18.1,16.83,861.79,0.5,4.78,8.83,2.83,28.38,-137.73
21,0,0,0,0,0,2020,8,2,14,0,23,0,0,0,4.11,3.28,4.98,4.1,20.76,19.91,16.92,18.15,16.87,862.3,-0.23,0.42,9.56,-1.37,2.52,-132.06
22,0,0,0,0,0,2020,8,2,14,0,24,0,0,0,4.11,3.29,4.99,4.09,20.75,18.9,16.89,18.21,16.86,861.45,-0.31,0.54,9.48,-1.84,3.23,-131.2
23,0,0,0,0,0,2020,8,2,14,0,25,0,0,0,4.11,3.29,4.98,4.1,20.73,18.55,16.95,18.26,16.85,863.15,-0.38,0.54,9.45,-2.31,3.24,-132.13
24,0,0,0,0,0,2020,8,2,14,0,26,0,0,0,4.11,3.29,4.99,4.1,20.62,19.12,16.96,18.25,16.86,863.08,-0.38,0.65,9.6,-2.28,3.87,-131.77
25,0,0,0,0,0,2020,8,2,14,0,27,0,0,0,4.11,3.28,4.98,4.1,20.93,20.3,16.95,18.33,16.9,862.95,-0.08,0.23,9.22,-0.48,1.43,-133.24
26,0,0,0,0,0,2020,8,2,14,0,28,0,0,0,4.11,3.29,4.99,4.1,20.79,19.65,16.93,18.34,16.91,861.53,0.04,0.34,9.71,0.23,2.03,-132.97
27,0,0,0,0,0,2020,8,2,14,0,29,0,0,0,4.11,3.28,4.98,4,21.56,19.88,16.97,18.35,16.88,862.45,-0.15,0.19,9.48,-0.92,1.15,-133.5
28,0,0,0,0,0,2020,8,2,14,0,30,0,0,0,4.11,3.29,4.99,4.1,21.1,19.46,16.99,18.39,16.89,863.24,-0.15,0.31,9.52,-0.92,1.84,-132.92
29,0,0,0,0,0,2020,8,2,14,0,31,0,0,0,4.1,3.28,4.98,4.03,21.52,19.43,16.96,18.45,16.86,862.02,-0.04,0.34,9.33,-0.23,2.11,-133.49
30,0,0,0,0,0,2020,8,2,14,0,32,0,0,0,4.11,3.29,4.99,4.1,21.51,19.24,16.98,18.46,16.88,863.17,-1.07,-0.65,9.06,-6.72,-4.07,-132.16
31,0,0,0,0,0,2020,8,2,14,0,33,0,0,0,4.1,3.28,4.98,4.1,21.56,19.33,16.94,18.53,16.87,861.45,-0.65,-0.04,8.8,-4.23,-0.25,-132.03
32,0,0,0,0,0,2020,8,2,14,0,34,0,0,0,4.11,3.29,4.99,4.1,21.45,19.5,16.97,18.55,16.89,862.26,-0.34,0.34,9.48,-2.08,2.08,-132.56
33,0,0,0,0,0,2020,8,2,14,0,35,0,0,0,4.11,3.28,4.98,4.1,22.96,20.25,16.98,18.57,16.9,861.87,-0.31,1.03,9.37,-1.86,6.29,-132.95
34,0,0,0,0,0,2020,8,2,14,0,36,0,0,0,4.11,3.29,4.99,4.1,21.76,19.53,16.99,18.64,16.88,862.93,-1.34,5.89,7.65,-7.89,37.18,-129.1
35,0,0,0,0,0,2020,8,2,14,0,37,0,0,0,4.11,3.28,4.98,4.1,22.32,19.81,17.01,18.66,16.87,863.14,-1.19,6.27,6.77,-7.32,42.39,-128.52
36,0,0,0,0,0,2020,8,2,14,0,38,0,0,0,4.09,3.29,4.99,4.09,21.86,19.06,16.99,18.67,16.88,862.78,-1.3,6.27,7.57,-7.53,39.23,-130.48
37,0,0,0,0,0,2020,8,2,14,0,39,0,0,0,4.1,3.28,4.98,4.09,22.83,18.83,17.01,18.71,16.87,863.42,0.19,4.97,10.94,0.91,24.44,-139.19
38,0,0,0,0,0,2020,8,2,14,0,40,0,0,0,4.11,3.29,4.99,4.09,22.09,19.17,17,18.73,16.88,863.57,-1.22,6.46,7.04,-7.3,42.14,-129.77
39,0,0,0,0,0,2020,8,2,14,0,41,0,0,0,4.11,3.28,4.98,4.1,22.4,20.08,16.99,18.78,16.85,863.66,-1.15,6.5,7,-6.85,42.51,-129.51
40,0,0,0,0,0,2020,8,2,14,0,42,0,0,0,4.11,3.29,4.99,4.09,22.24,19.24,16.99,18.82,16.86,863.06,-1.07,6.5,6.96,-6.41,42.71,-129.82
41,0,0,0,0,0,2020,8,2,14,0,43,0,0,0,4.11,3.28,4.98,4.09,22.85,19.04,16.97,18.83,16.85,862.66,-1.42,5.47,7.19,-8.9,36.73,-128.46
42,0,0,0,0,0,2020,8,2,14,0,44,0,0,0,4.11,3.29,4.99,4.1,22.29,19.49,17,18.84,16.83,862.77,-2.91,5.93,7.46,-16.97,36.52,-122.18
43,0,0,0,0,0,2020,8,2,14,0,45,0,0,0,4.1,3.28,4.98,4.09,22.96,19.76,16.96,18.89,16.87,861.75,2.68,2.52,8.68,16.49,15.53,-141.34
44,0,0,0,0,0,2020,8,2,14,0,46,0,0,0,4.11,3.29,4.99,4.09,22.47,19.33,16.95,18.93,16.86,861.14,0.61,3.33,8.64,3.78,21.01,-134.21
45,0,0,0,0,0,2020,8,2,14,0,47,0,0,0,4.11,3.28,4.98,4.1,23.44,19.53,16.98,18.97,16.91,861.62,0.73,5.7,7.5,4.41,37.11,-138.23
46,0,0,0,0,0,2020,8,2,14,0,48,0,0,0,4.11,3.29,4.99,4.09,22.91,19.2,17,18.98,16.91,862.1,-0.27,6.2,7.11,-1.63,41.03,-134.05
47,0,0,0,0,0,2020,8,2,14,0,49,0,0,0,4.1,3.28,4.98,4.1,23.1,19.62,16.97,19.05,16.9,861.47,0.38,5.01,8.34,2.25,30.98,-135.71
48,0,0,0,0,0,2020,8,2,14,0,50,0,0,0,4.11,3.29,4.99,4.09,23.18,19.48,17.01,19.09,16.91,861.71,0.57,4.21,9.94,3.04,22.9,-134.24
49,0,0,0,0,0,2020,8,2,14,0,51,0,0,0,4.1,3.28,4.98,4.1,22.74,19.05,17.01,19.13,16.9,861.4,-0.08,0.76,9.6,-0.46,4.56,-132.13
50,0,0,0,0,0,2020,8,2,14,0,52,0,0,0,4.11,3.29,4.99,4.07,23.22,19.38,17.07,19.21,16.95,863.08,-0.54,0.65,9.18,-3.33,4.04,-130.32
51,0,0,0,0,0,2020,8,2,14,0,53,0,0,0,4.1,3.28,4.98,4.1,22.47,19.48,17,19.21,16.93,861.42,0,0.65,9.26,0,4.02,-133.14
52,0,0,0,0,0,2020,8,2,14,0,54,0,0,0,4.11,3.29,4.99,4.1,23.44,19.39,17.06,19.23,16.95,862.45,-0.38,0.84,9.75,-2.24,4.93,-130.03
53,0,0,0,0,0,2020,8,2,14,0,55,0,0,0,4.08,3.28,4.98,4.1,23.59,19.32,17.03,19.24,16.93,861.04,-0.08,0.54,9.64,-0.45,3.18,-132.22
54,0,0,0,0,0,2020,8,2,14,0,56,0,0,0,4.11,3.29,4.99,4.09,23.61,19.53,16.99,19.32,16.91,858.88,-6.35,-13.19,7.3,-22.83,-53.74,151.97
55,0,0,0,0,0,2020,8,2,14,0,57,0,0,0,4.1,3.28,4.98,4.1,24.02,20.55,17.02,19.35,16.92,858.84,0.38,0.27,8.76,2.5,1.75,-132.78
56,0,0,0,0,0,2020,8,2,14,0,58,0,0,0,4.11,3.29,4.99,4.09,23.93,19.26,17.09,19.41,16.95,861.44,-0.11,0.31,9.52,-0.69,1.84,-131.36
57,0,0,0,0,0,2020,8,2,14,0,59,0,0,0,4.1,3.28,4.98,4.09,23.65,20.03,17.09,19.48,16.95,861.43,0.65,-2.68,6.31,5.42,-22.88,-151.6
58,0,0,0,0,0,2020,8,2,14,1,0,0,0,0,4.11,3.29,4.99,4.09,23.6,19.35,17.12,19.48,16.94,862.91,-0.65,0.04,9.45,-3.94,0.23,-130.51
59,0,0,0,0,0,2020,8,2,14,1,1,0,0,0,4.07,3.28,4.98,4.09,23.59,19.48,17.15,19.51,16.95,863.58,0.61,-0.92,6.35,5.45,-8.19,-140.17
60,0,0,0,0,0,2020,8,2,14,1,2,0,0,0,4.11,3.29,4.99,4.09,23.94,19.52,17.11,19.54,16.97,862.04,-0.19,0.57,9.91,-1.1,3.31,-130.18
61,0,0,0,0,0,2020,8,2,14,1,3,0,0,0,4.1,3.28,4.98,4.09,24.36,19.45,17.07,19.55,16.96,861.53,-0.04,0.57,10.36,-0.21,3.17,-130.35
62,0,0,0,0,0,2020,8,2,14,1,4,0,0,0,4.11,3.29,4.99,4.09,23.76,19.13,17.09,19.63,16.95,861.6,0.08,0.5,9.56,0.46,2.98,-132.07
63,0,0,0,0,0,2020,8,2,14,1,5,0,0,0,4.1,3.28,4.98,4.09,24.22,19.96,17.16,19.61,16.98,863.77,-0.08,0.31,8.68,-0.5,2.02,-132.17
64,0,0,0,0,0,2020,8,2,14,1,6,0,0,0,4.11,3.29,4.99,4.09,24.24,19.38,17.15,19.64,16.97,863.99,0.11,0.61,9.33,0.7,3.75,-133.21
65,0,0,0,0,0,2020,8,2,14,1,7,0,0,0,4.1,3.28,4.98,4.09,24.49,20.06,17.14,19.66,16.95,863.88,0.15,0.57,9.48,0.92,3.46,-133.53
66,0,0,0,0,0,2020,8,2,14,1,8,0,0,0,4.11,3.29,4.99,4.09,24.22,19.37,17.15,19.68,16.95,863.95,0.11,0.57,9.48,0.69,3.46,-133.52
67,0,0,0,0,0,2020,8,2,14,1,9,0,0,0,4.1,3.28,4.98,4.04,23.26,19.34,17.15,19.71,16.95,863.99,0.11,0.54,9.56,0.69,3.2,-133.68
68,0,0,0,0,0,2020,8,2,14,1,10,0,0,0,4.11,3.29,4.99,4.09,24.29,19.84,17.15,19.68,16.94,864.15,0.08,0.57,9.48,0.46,3.46,-133.23
69,0,0,0,0,0,2020,8,2,14,1,11,0,0,0,4.1,3.28,4.98,4.1,23.11,19.58,17.14,19.76,16.95,863.97,0.23,0.61,9.83,1.33,3.56,-133.66
70,0,0,0,0,0,2020,8,2,14,1,12,0,0,0,4.1,3.29,4.99,4.09,24.28,19.54,17.13,19.75,16.94,864.09,0.08,1.53,9.14,0.47,9.5,-129.8
71,0,0,0,0,0,2020,8,2,14,1,13,0,0,0,4.1,3.28,4.98,4.09,24.19,18.96,17.13,19.81,16.95,863.81,0.27,0.54,9.45,1.62,3.24,-133.83
72,0,0,0,0,0,2020,8,2,14,1,14,0,0,0,4.11,3.29,4.99,4.09,24.56,19.09,17.12,19.8,16.95,864.02,0.31,0.76,9.52,1.83,4.59,-133.16
73,0,0,0,0,0,2020,8,2,14,1,15,0,0,0,4.11,3.28,4.98,4.09,23.33,19.05,17.14,19.84,16.93,864.02,0.23,0.61,9.45,1.39,3.71,-133.42
74,0,0,0,0,0,2020,8,2,14,1,16,0,0,0,4.11,3.29,4.99,4.09,24.66,19.6,17.13,19.86,16.91,863.98,0.08,0.65,9.52,0.46,3.91,-131.92
75,0,0,0,0,0,2020,8,2,14,1,17,0,0,0,4.1,3.28,4.98,4.1,24.71,20.67,17.14,19.88,16.95,864.04,0.23,0.65,9.48,1.38,3.92,-133.09
76,0,0,0,0,0,2020,8,2,14,1,18,0,0,0,4.07,3.29,4.99,4.09,24.65,19.37,17.13,19.93,16.91,864.01,-0.04,0.5,9.26,-0.24,3.07,-132.79
77,0,0,0,0,0,2020,8,2,14,1,19,0,0,0,4.1,3.28,4.98,4.09,23.84,19.39,17.12,19.92,16.92,863.94,0.61,0.73,8.76,3.98,4.73,-134.32
78,0,0,0,0,0,2020,8,2,14,1,20,0,0,0,4.1,3.29,4.99,4.09,24.63,19.64,17.12,19.95,16.94,863.84,0,0.57,9.52,0,3.45,-133.4
79,0,0,0,0,0,2020,8,2,14,1,21,0,0,0,4.1,3.28,4.98,4.09,24.29,19.5,17.12,19.96,16.93,863.92,-0.23,0.65,9.45,-1.39,3.94,-132.65
80,0,0,0,0,0,2020,8,2,14,1,22,0,0,0,4.1,3.29,4.99,4.09,24.94,19.18,17.13,19.97,16.91,864.02,0.11,0.69,9.48,0.69,4.15,-132.77
81,0,0,0,0,0,2020,8,2,14,1,23,0,0,0,4.1,3.28,4.98,4.09,24.3,19.44,17.15,20.02,16.93,864.01,0.27,0.69,9.52,1.61,4.13,-134.9
82,0,0,0,0,0,2020,8,2,14,1,24,0,0,0,4.11,3.29,4.99,4.09,24.95,19.36,17.14,20.03,16.94,864.04,0.19,0.69,9.29,1.18,4.24,-133.89
83,0,0,0,0,0,2020,8,2,14,1,25,0,0,0,4.1,3.28,4.98,4.09,24.1,19.62,17.13,20.05,16.91,864.09,0.11,0.61,9.6,0.68,3.65,-133.52
84,0,0,0,0,0,2020,8,2,14,1,26,0,0,0,4.11,3.29,4.99,4.02,25.07,19.29,17.14,20.08,16.91,864,0.08,0.65,9.48,0.46,3.92,-132.46
85,0,0,0,0,0,2020,8,2,14,1,27,0,0,0,4.1,3.28,4.98,4.09,24.3,19.61,17.13,20.07,16.88,863.94,-0.11,0.5,9.37,-0.7,3.04,-133.91
86,0,0,0,0,0,2020,8,2,14,1,28,0,0,0,4.1,3.29,4.99,4.09,25.07,19.58,17.14,20.08,16.94,863.86,0.15,0.65,9.45,0.93,3.94,-133.67
87,0,0,0,0,0,2020,8,2,14,1,29,0,0,0,4.1,3.28,4.98,4.09,24.26,20.24,17.13,20.13,16.91,864.19,0.08,0.65,9.52,0.46,3.91,-133.3
88,0,0,0,0,0,2020,8,2,14,1,30,0,0,0,4.1,3.29,4.99,4.09,25.26,19.43,17.14,20.17,16.95,864.06,0.38,0.99,9.6,2.27,5.91,-133.46
89,0,0,0,0,0,2020,8,2,14,1,31,0,0,0,4.1,3.28,4.98,4.09,24.36,19.38,17.15,20.16,16.94,864.06,0.34,0.96,9.56,2.05,5.71,-134.31
90,0,0,0,0,0,2020,8,2,14,1,32,0,0,0,4.11,3.29,4.99,4.09,25.25,19.11,17.13,20.19,16.89,864,0.11,0.69,9.52,0.69,4.13,-133.27
91,0,0,0,0,0,2020,8,2,14,1,33,0,0,0,4.1,3.28,4.98,4.09,24.5,19.56,17.14,20.2,16.93,863.96,0.5,1.07,9.83,2.88,6.21,-134.33
92,0,0,0,0,0,2020,8,2,14,1,34,0,0,0,4.1,3.29,4.99,4.09,25.38,19.39,17.15,20.23,16.92,864.08,0.15,0.69,9.29,0.94,4.24,-133.69
93,0,0,0,0,0,2020,8,2,14,1,35,0,0,0,4.05,3.28,4.98,4.09,25.28,20.16,17.14,20.23,16.89,863.96,0.19,0.8,9.48,1.15,4.84,-133.6
94,0,0,0,0,0,2020,8,2,14,1,36,0,0,0,4.1,3.29,4.99,4.09,25.37,19.47,17.15,20.23,16.92,863.97,-0.54,-0.46,8.49,-3.6,-3.09,-134.95
95,0,0,0,0,0,2020,8,2,14,1,37,0,0,0,4.1,3.28,4.98,4.09,23.91,19.27,17.15,20.28,16.88,864.25,-0.42,0.19,9.14,-2.63,1.2,-132.9
96,0,0,0,0,0,2020,8,2,14,1,38,0,0,0,4.11,3.29,4.99,4.09,25.48,19.56,17.15,20.26,16.96,863.95,0,0.5,9.1,0,3.13,-134.2
97,0,0,0,0,0,2020,8,2,14,1,39,0,0,0,4.1,3.28,4.98,4.09,25.21,18.74,17.16,20.28,16.92,864.04,0.42,0.96,9.48,2.53,5.75,-134.74
98,0,0,0,0,0,2020,8,2,14,1,40,0,0,0,4.1,3.29,4.99,4.09,25.64,19.48,17.16,20.29,16.89,864.18,0.31,0.92,9.6,1.82,5.46,-133.71
99,0,0,0,0,0,2020,8,2,14,1,41,0,0,0,4.1,3.28,4.98,4.09,24.46,18.53,17.16,20.27,16.91,864.09,0.08,0.54,9.41,0.47,3.26,-134.79
100,0,0,0,0,0,2020,8,2,14,1,42,0,0,0,4.1,3.29,4.99,4.09,25.78,19.61,17.16,20.35,16.92,863.96,-0.11,0.57,8.91,-0.74,3.68,-133
101,0,0,0,0,0,2020,8,2,14,1,43,0,0,0,4.1,3.28,4.98,4.01,24.29,19.56,17.16,20.35,16.88,863.92,0,0.5,9.37,0,3.04,-133.02
102,0,0,0,0,0,2020,8,2,14,1,44,0,0,0,4.1,3.29,4.99,4.09,25.74,19.64,17.16,20.32,16.91,863.91,0.23,0.84,10.02,1.31,4.8,-133.63
103,0,0,0,0,0,2020,8,2,14,1,45,0,0,0,4.1,3.28,4.98,4.09,25.33,19.68,17.17,20.4,16.9,864.13,0.23,0.57,9.41,1.39,3.49,-134.67
104,0,0,0,0,0,2020,8,2,14,1,46,0,0,0,4.1,3.29,4.99,4.09,25.83,19.39,17.16,20.38,16.91,863.87,0.04,0.38,9.33,0.23,2.35,-134.66
105,0,0,0,0,0,2020,8,2,14,1,47,0,0,0,4.1,3.28,4.98,4.09,24.95,20.62,17.16,20.42,16.92,864.01,0.08,0.69,9.52,0.46,4.13,-134.05
106,0,0,0,0,0,2020,8,2,14,1,48,0,0,0,4.1,3.29,4.99,4.09,25.69,19.02,17.17,20.43,16.91,863.93,0.19,0.8,9.06,1.2,5.06,-133.9
107,0,0,0,0,0,2020,8,2,14,1,49,0,0,0,4.1,3.28,4.98,3.99,25.14,19.13,17.17,20.41,16.87,864.04,0.19,0.69,9.52,1.15,4.13,-134.7
108,0,0,0,0,0,2020,8,2,14,1,50,0,0,0,4.1,3.29,4.99,4.09,25.72,19.54,17.18,20.41,16.9,864.18,0.11,0.92,9.41,0.7,5.57,-132.96
109,0,0,0,0,0,2020,8,2,14,1,51,0,0,0,4.1,3.28,4.98,4.09,24.88,20.21,17.16,20.48,16.91,864.02,0.04,0.69,9.33,0.23,4.22,-133.41
110,0,0,0,0,0,2020,8,2,14,1,52,0,0,0,4.1,3.29,4.99,4.09,25.95,19.69,17.17,20.47,16.88,864.02,0.19,0.69,9.56,1.14,4.12,-134.01
111,0,0,0,0,0,2020,8,2,14,1,53,0,0,0,4.1,3.28,4.98,4.09,25.11,19.18,17.18,20.5,16.91,863.99,0.04,0.69,9.37,0.23,4.2,-133.57
112,0,0,0,0,0,2020,8,2,14,1,54,0,0,0,4.1,3.29,4.99,4.09,25.84,19.39,17.18,20.52,16.91,863.97,0.31,0.88,9.71,1.8,5.17,-134.26
113,0,0,0,0,0,2020,8,2,14,1,55,0,0,0,4.1,3.28,4.98,4.09,25.25,20.58,17.18,20.52,16.88,863.86,0.34,0.92,9.56,2.05,5.48,-134.3
114,0,0,0,0,0,2020,8,2,14,1,56,0,0,0,4.08,3.29,4.99,4.09,25.97,19.65,17.19,20.55,16.91,863.95,-0.65,0.11,9.41,-3.95,0.7,-133.4
115,0,0,0,0,0,2020,8,2,14,1,57,0,0,0,4.1,3.28,4.98,4.09,25.53,19.98,17.19,20.57,16.88,863.99,0.19,0.69,9.33,1.17,4.22,-134.34
116,0,0,0,0,0,2020,8,2,14,1,58,0,0,0,4.06,3.29,4.99,4.09,25.88,19.43,17.2,20.55,16.89,864.16,0.23,0.65,9.29,1.41,4,-134.11
117,0,0,0,0,0,2020,8,2,14,1,59,0,0,0,4.1,3.28,4.98,4.09,25.67,20.16,17.2,20.59,16.95,863.92,0.04,0.61,9.41,0.23,3.72,-133.68
118,0,0,0,0,0,2020,8,2,14,2,0,0,0,0,4.1,3.29,4.99,4.09,26.55,19.67,17.21,20.59,16.92,863.94,0.15,0.73,9.6,0.91,4.33,-133.56
119,0,0,0,0,0,2020,8,2,14,2,1,0,0,0,4.1,3.28,4.98,4.09,25.13,20.26,17.22,20.6,16.93,864.02,0.04,0.69,9.64,0.23,4.09,-133.54
120,0,0,0,0,0,2020,8,2,14,2,2,0,0,0,4.1,3.29,4.99,4.09,26.31,19.45,17.21,20.62,16.92,864.09,0.11,0.61,9.45,0.69,3.71,-134.07
121,0,0,0,0,0,2020,8,2,14,2,3,0,0,0,4.1,3.28,4.98,4.08,24.5,19.69,17.21,20.68,16.9,864.03,0.11,0.65,9.52,0.69,3.91,-133.95
122,0,0,0,0,0,2020,8,2,14,2,4,0,0,0,4.1,3.29,4.99,4.09,26.02,19.33,17.22,20.67,16.91,864.05,0.04,0.69,9.64,0.23,4.09,-134.43
123,0,0,0,0,0,2020,8,2,14,2,5,0,0,0,4.1,3.28,4.98,4.08,25.47,19.81,17.21,20.66,16.94,864.03,0.11,0.73,9.64,0.68,4.31,-134
124,0,0,0,0,0,2020,8,2,14,2,6,0,0,0,4.1,3.29,4.99,4,26.3,19.48,17.22,20.7,16.95,863.89,0.31,0.84,9.48,1.84,5.07,-134.08
125,0,0,0,0,0,2020,8,2,14,2,7,0,0,0,4.1,3.28,4.98,4.09,25.74,20.21,17.23,20.7,16.88,864.13,0.04,0.73,9.56,0.23,4.35,-133.28
126,0,0,0,0,0,2020,8,2,14,2,8,0,0,0,4.1,3.29,4.98,4.09,26.41,19.67,17.24,20.76,16.92,864.11,-0.15,0.46,9.33,-0.94,2.82,-133.55
127,0,0,0,0,0,2020,8,2,14,2,9,0,0,0,4.1,3.28,4.98,4.09,24.72,20.04,17.22,20.74,16.91,863.94,0.08,0.65,9.52,0.46,3.91,-133.5
128,0,0,0,0,0,2020,8,2,14,2,10,0,0,0,4.1,3.29,4.99,4.09,26.4,19.69,17.24,20.77,16.91,863.99,-0.04,0.96,9.56,-0.23,5.71,-132.48
129,0,0,0,0,0,2020,8,2,14,2,11,0,0,0,4.1,3.28,4.98,4.08,25.91,19.83,17.23,20.75,16.95,864.04,0.08,0.69,9.52,0.46,4.13,-133.18
130,0,0,0,0,0,2020,8,2,14,2,12,0,0,0,4.1,3.29,4.99,4.09,26.42,19.63,17.24,20.8,16.92,863.94,0.15,0.61,9.37,0.93,3.74,-133.93
131,0,0,0,0,0,2020,8,2,14,2,13,0,0,0,4.09,3.28,4.98,4.09,25.85,20.26,17.23,20.8,16.93,864.07,-0.23,0.38,9.48,-1.38,2.31,-133.23
132,0,0,0,0,0,2020,8,2,14,2,14,0,0,0,4.1,3.29,4.99,4.09,26.36,19.54,17.25,20.85,16.93,863.96,0.19,0.88,9.64,1.13,5.21,-133.81
133,0,0,0,0,0,2020,8,2,14,2,15,0,0,0,4.1,3.28,4.98,4.09,25.65,20.28,17.25,20.85,16.92,863.95,0.15,0.76,9.45,0.92,4.63,-134.57
134,0,0,0,0,0,2020,8,2,14,2,16,0,0,0,4.1,3.29,4.99,4.09,26.64,19.62,17.25,20.85,16.91,863.98,0.27,0.8,9.56,1.6,4.8,-133.57
135,0,0,0,0,0,2020,8,2,14,2,17,0,0,0,4.1,3.28,4.98,4.09,26.11,20.46,17.27,20.85,16.92,863.96,0.15,0.8,9.52,0.92,4.82,-134.15
136,0,0,0,0,0,2020,8,2,14,2,18,0,0,0,4.1,3.29,4.99,4.09,26.51,19.53,17.26,20.91,16.91,864.02,0.38,0.96,9.94,2.19,5.49,-134.05
137,0,0,0,0,0,2020,8,2,14,2,19,0,0,0,4.05,3.28,4.98,4.09,25.51,19.91,17.27,20.92,16.91,863.87,0.19,0.8,9.48,1.15,4.84,-133.54
138,0,0,0,0,0,2020,8,2,14,2,20,0,0,0,4.1,3.29,4.99,4.09,26.71,19.54,17.27,20.91,16.94,864.1,0.19,0.73,9.52,1.15,4.36,-133.98
139,0,0,0,0,0,2020,8,2,14,2,21,0,0,0,4.1,3.28,4.98,4.09,25.38,19.84,17.28,20.95,16.95,863.9,0.11,0.73,9.41,0.7,4.42,-133.81
140,0,0,0,0,0,2020,8,2,14,2,22,0,0,0,4.1,3.29,4.99,4.09,26.53,19.73,17.28,20.98,16.94,864.1,0.08,0.65,9.6,0.46,3.87,-134.24
141,0,0,0,0,0,2020,8,2,14,2,23,0,0,0,4.1,3.28,4.98,4.08,25.34,19.43,17.29,20.99,16.93,863.94,0.42,1.19,9.64,2.48,7.01,-134.03
142,0,0,0,0,0,2020,8,2,14,2,24,0,0,0,4.1,3.29,4.99,4.09,26.79,19.65,17.29,20.98,16.95,864.04,0.23,0.8,9.48,1.38,4.84,-133.8
143,0,0,0,0,0,2020,8,2,14,2,25,0,0,0,4.1,3.27,4.98,4.08,24.54,20.71,17.29,21.04,16.97,864.17,0.23,0.88,9.33,1.4,5.38,-133.71
144,0,0,0,0,0,2020,8,2,14,2,26,0,0,0,4.1,3.29,4.99,4.09,26.71,19.28,17.29,21.05,16.97,864,0.11,0.61,9.41,0.7,3.72,-134.08
145,0,0,0,0,0,2020,8,2,14,2,27,0,0,0,4.1,3.28,4.98,4,25.64,19.37,17.3,21.05,16.95,863.98,0.27,0.8,9.52,1.6,4.82,-133.48
146,0,0,0,0,0,2020,8,2,14,2,28,0,0,0,4.1,3.29,4.99,4.09,26.75,19.65,17.3,21.06,16.95,863.96,0.15,0.69,9.68,0.9,4.07,-133.76
147,0,0,0,0,0,2020,8,2,14,2,29,0,0,0,4.09,3.28,4.98,4.08,25.51,19.94,17.3,21.07,16.95,864.05,0.38,0.8,9.6,2.27,4.78,-134.29
148,0,0,0,0,0,2020,8,2,14,2,30,0,0,0,4.1,3.29,4.99,4.08,26.73,19.71,17.31,21.09,16.95,863.98,0.27,0.76,9.52,1.61,4.59,-134.86
149,0,0,0,0,0,2020,8,2,14,2,31,0,0,0,4.1,3.28,4.98,4.08,25.18,20.09,17.32,21.1,16.95,864.01,0.19,0.76,9.56,1.14,4.57,-133.9
150,0,0,0,0,0,2020,8,2,14,2,32,0,0,0,4.1,3.29,4.99,4.09,26.78,19.79,17.33,21.13,16.97,863.99,0.5,0.96,9.48,2.99,5.75,-134.16
151,0,0,0,0,0,2020,8,2,14,2,33,0,0,0,4.1,3.28,4.98,4.05,26.04,19.53,17.31,21.16,16.95,864.05,0.04,0.65,9.79,0.22,3.8,-134.88
152,0,0,0,0,0,2020,8,2,14,2,34,0,0,0,4.1,3.29,4.99,4.09,26.81,19.91,17.33,21.19,16.94,864.07,0.42,0.92,9.56,2.51,5.48,-133.35
153,0,0,0,0,0,2020,8,2,14,2,35,0,0,0,4.1,3.28,4.98,4.09,26.52,19.62,17.33,21.19,16.95,864.03,0.19,0.8,9.56,1.14,4.8,-133.45
154,0,0,0,0,0,2020,8,2,14,2,36,0,0,0,4.08,3.29,4.99,4.09,27,19.84,17.34,21.2,17.01,863.94,0,0.57,9.33,0,3.52,-133.61
155,0,0,0,0,0,2020,8,2,14,2,37,0,0,0,4.1,3.28,4.98,4.09,26.08,19.89,17.34,21.2,16.95,863.97,0.31,0.73,9.41,1.86,4.41,-134.53
156,0,0,0,0,0,2020,8,2,14,2,38,0,0,0,4.1,3.29,4.99,4.09,27.07,19.76,17.35,21.22,16.96,864.05,0.23,0.69,9.56,1.37,4.12,-134.1
157,0,0,0,0,0,2020,8,2,14,2,39,0,0,0,4.1,3.28,4.98,4.09,25.63,20.46,17.36,21.21,16.95,864.06,0.11,0.69,9.48,0.69,4.15,-133.98
158,0,0,0,0,0,2020,8,2,14,2,40,0,0,0,4.1,3.29,4.99,4.09,27.09,19.63,17.35,21.27,16.97,863.9,0.15,0.76,9.48,0.92,4.61,-133.46
159,0,0,0,0,0,2020,8,2,14,2,41,0,0,0,4.1,3.28,4.98,4.08,25.48,19.14,17.36,21.23,16.96,864.12,0.04,0.65,9.37,0.23,3.97,-133.87
160,0,0,0,0,0,2020,8,2,14,2,42,0,0,0,4.1,3.29,4.99,4.09,27.15,19.56,17.35,21.28,16.98,863.98,0.11,0.69,9.56,0.69,4.12,-134.54
161,0,0,0,0,0,2020,8,2,14,2,43,0,0,0,4.1,3.28,4.98,4.08,26.59,19.85,17.37,21.25,16.98,864.12,0.42,0.84,9.52,2.52,5.04,-134.62
162,0,0,0,0,0,2020,8,2,14,2,44,0,0,0,4.1,3.29,4.99,4.09,27.18,19.51,17.37,21.3,17.01,863.98,-0.11,0.61,9.37,-0.7,3.74,-133.46
163,0,0,0,0,0,2020,8,2,14,2,45,0,0,0,4.09,3.28,4.98,4.08,26.04,20.29,17.38,21.32,17,863.93,0.19,0.76,9.52,1.15,4.59,-133.99
164,0,0,0,0,0,2020,8,2,14,2,46,0,0,0,4.1,3.29,4.99,4.04,27.12,19.68,17.37,21.34,16.98,864.01,0.11,0.73,9.52,0.69,4.36,-133.73
165,0,0,0,0,0,2020,8,2,14,2,47,0,0,0,4.09,3.28,4.98,4.08,26.38,19.2,17.38,21.34,16.98,864.03,0.04,0.8,9.45,0.23,4.86,-133.86
166,0,0,0,0,0,2020,8,2,14,2,48,0,0,0,4.1,3.29,4.99,4.08,27.19,19.53,17.4,21.31,16.95,864.11,0.19,0.8,9.56,1.14,4.8,-133.97
167,0,0,0,0,0,2020,8,2,14,2,49,0,0,0,4.1,3.28,4.98,4.08,25.91,19.9,17.39,21.32,17.03,863.9,0.11,0.69,9.48,0.69,4.15,-133.63
168,0,0,0,0,0,2020,8,2,14,2,50,0,0,0,4.1,3.29,4.99,4.09,27.63,19.75,17.41,21.35,16.98,863.99,0,0.73,9.75,0,4.26,-133.63
169,0,0,0,0,0,2020,8,2,14,2,51,0,0,0,4.09,3.28,4.98,4.08,26.46,19.45,17.4,21.38,17.01,863.93,0.15,0.73,9.56,0.91,4.35,-133.18
170,0,0,0,0,0,2020,8,2,14,2,52,0,0,0,4.1,3.29,4.99,4.08,27.22,19.39,17.41,21.38,17,863.99,0.08,0.8,9.56,0.46,4.8,-133.55
171,0,0,0,0,0,2020,8,2,14,2,53,0,0,0,4.05,3.28,4.98,4.08,26.19,20.25,17.41,21.38,16.98,863.92,0.11,0.73,9.41,0.7,4.42,-133.78
172,0,0,0,0,0,2020,8,2,14,2,54,0,0,0,4.1,3.29,4.99,4.08,27.3,19.76,17.42,21.4,17.03,864.05,0.15,0.73,9.52,0.92,4.36,-134.09
173,0,0,0,0,0,2020,8,2,14,2,55,0,0,0,4.1,3.28,4.97,4.08,26.53,20.78,17.42,21.41,17,863.99,0.19,0.73,9.68,1.13,4.29,-134.03
174,0,0,0,0,0,2020,8,2,14,2,56,0,0,0,4.1,3.29,4.99,4.09,27.42,19.7,17.41,21.38,17.02,863.94,0.08,0.76,9.64,0.45,4.54,-133.11
175,0,0,0,0,0,2020,8,2,14,2,57,0,0,0,4.1,3.28,4.98,4.09,27.42,19.4,17.44,21.44,17.02,863.95,0.15,0.69,9.75,0.9,4.04,-133.95
176,0,0,0,0,0,2020,8,2,14,2,58,0,0,0,4.1,3.29,4.99,4.09,27.31,19.82,17.43,21.45,17.02,863.81,0.19,0.65,9.52,1.15,3.9,-134.06
177,0,0,0,0,0,2020,8,8,14,44,25,0,0,0,4.09,3.28,4.98,4.08,25.88,20.07,17.45,21.45,17.05,863.93,0.15,0.8,9.48,0.92,4.84,-133.34
178,0,0,0,0,0,2020,8,8,14,44,26,0,0,0,4.1,3.29,4.99,4.09,27.77,19.57,17.43,21.48,17.03,863.92,0.11,0.73,9.52,0.69,4.36,-133.63
179,0,0,0,0,0,2020,8,8,14,44,27,0,0,0,4.09,3.28,4.98,4.08,26.43,18.62,17.45,21.47,17.02,863.9,0.15,0.73,9.52,0.92,4.36,-134.33
180,0,0,0,0,0,2020,8,8,14,44,28,0,0,0,4.1,3.29,4.99,4.09,27.39,19.38,17.44,21.5,17.06,864.09,0.15,0.73,9.56,0.91,4.35,-134.34
181,0,0,0,0,0,2020,8,8,14,44,29,0,0,0,4.09,3.28,4.98,4,27.29,20.7,17.45,21.51,17.02,863.97,0.27,0.76,9.45,1.62,4.63,-134.25
182,0,0,0,0,0,2020,8,8,14,44,30,0,0,0,4.09,3.29,4.99,4.09,27.65,19.75,17.48,21.54,17.02,864.08,0.23,0.76,9.33,1.4,4.68,-134.4
183,0,0,0,0,0,2020,8,8,14,44,31,0,0,0,4.09,3.28,4.98,4.08,27.49,19.87,17.48,21.52,17.05,863.96,0.15,0.76,9.48,0.92,4.61,-134.33
184,0,0,0,0,0,2020,8,8,14,44,32,0,0,0,4.1,3.29,4.98,4.09,27.68,19.68,17.49,21.57,17.02,864.12,0.15,0.65,9.52,0.92,3.91,-133.5
185,0,0,0,0,0,2020,8,8,14,44,33,0,0,0,4.1,3.28,4.98,4.08,26.6,19.98,17.49,21.54,17.05,864,0.15,0.69,9.56,0.91,4.12,-134.29
186,0,0,0,0,0,2020,8,8,14,44,34,0,0,0,4.1,3.29,4.99,4.09,27.82,19.88,17.49,21.57,17.05,864.01,0.15,0.69,9.48,0.92,4.15,-132.97
187,0,0,0,0,0,2020,8,8,14,44,35,0,0,0,4.09,3.28,4.98,4.08,28.19,20.44,17.48,21.63,17.03,863.95,0.15,0.73,9.52,0.92,4.36,-134.41
188,0,0,0,0,0,2020,8,8,14,44,36,0,0,0,4.08,3.29,4.99,4.09,27.76,19.74,17.5,21.58,17.04,863.92,0.19,0.69,9.48,1.15,4.15,-133.84
189,0,0,0,0,0,2020,8,8,14,44,37,0,0,0,4.1,3.28,4.98,4.08,27.14,18.88,17.5,21.61,17.06,863.95,0.11,0.76,9.6,0.68,4.56,-134.84
190,0,0,0,0,0,2020,8,8,14,44,38,0,0,0,4.08,3.29,4.99,4.08,27.74,19.74,17.5,21.62,17.03,863.95,0.15,0.73,9.52,0.92,4.36,-134.51
191,0,0,0,0,0,2020,8,8,14,44,39,0,0,0,4.09,3.28,4.98,4.08,26.99,19.6,17.5,21.59,17.07,863.83,0.15,0.76,9.56,0.91,4.57,-134.5
192,0,0,0,0,0,2020,8,8,14,44,40,0,0,0,4.1,3.29,4.99,4.08,27.91,19.96,17.51,21.63,17.09,863.93,0.19,0.73,9.52,1.15,4.36,-133.83
193,0,0,0,0,0,2020,8,8,14,44,41,0,0,0,4.1,3.28,4.98,4.08,26.37,20.03,17.52,21.66,17.05,864.11,0.08,0.65,9.52,0.46,3.91,-133.92
194,0,0,0,0,0,2020,8,8,14,44,42,0,0,0,4.1,3.29,4.99,4.09,27.82,19.83,17.52,21.66,17.05,864.01,0.15,0.73,9.41,0.93,4.42,-133.73
195,0,0,0,0,0,2020,8,8,14,44,43,0,0,0,4.09,3.28,4.98,4.08,27.98,19.93,17.54,21.66,17.09,863.99,0.15,0.76,9.52,0.92,4.59,-133.62
196,0,0,0,0,0,2023,10,14,14,44,44,0,0,0,4.1,3.29,4.99,4.08,27.88,19.73,17.53,21.7,17.05,864.06,0.08,0.76,9.48,0.46,4.61,-133.81
197,0,0,0,0,0,2023,10,14,14,44,45,0,0,0,4.09,3.28,4.98,4.08,27.31,19.72,17.55,21.71,17.09,864.03,0.23,0.73,9.56,1.37,4.34,-134.01
198,0,0,0,0,0,2023,10,14,14,44,46,0,0,0,4.1,3.28,4.99,4.01,27.82,19.61,17.55,21.73,17.05,864,0.11,0.76,9.48,0.69,4.61,-133.72
199,0,0,0,0,0,2023,10,14,14,44,47,0,0,0,4.09,3.28,4.98,4.08,25.65,18.48,17.55,21.75,17.09,864.06,0.23,0.65,9.37,1.4,3.97,-134.2
200,0,0,0,0,0,2023,10,14,14,44,48,0,0,0,4.1,3.29,4.99,4.09,28,19.9,17.57,21.74,17.09,863.92,0.19,0.65,9.48,1.15,3.92,-134.28
201,0,0,0,0,0,2023,10,14,14,44,49,0,0,0,4.09,3.28,4.98,4.08,26.98,19.99,17.56,21.76,17.1,863.98,0.08,0.73,9.56,0.46,4.35,-134.42
202,0,0,0,0,0,2023,10,14,14,44,50,0,0,0,4.1,3.29,4.99,4.08,28.02,20.1,17.57,21.77,17.12,863.92,0.19,0.73,9.26,1.18,4.49,-133.54
203,0,0,0,0,0,2023,10,14,14,44,51,0,0,0,4.09,3.28,4.98,4.08,27.28,19.83,17.57,21.78,17.11,863.98,0.19,0.65,9.79,1.12,3.8,-135.11
204,0,0,0,0,0,2023,10,14,14,44,52,0,0,0,4.1,3.29,4.99,4.09,27.93,20.05,17.59,21.8,17.1,863.92,0.15,0.73,9.48,0.92,4.38,-134.19
205,0,0,0,0,0,2023,10,14,14,44,53,0,0,0,4.09,3.28,4.98,4.08,27.47,19.74,17.58,21.8,17.1,863.96,0.15,0.84,9.26,0.94,5.19,-133.99
206,0,0,0,0,0,2023,10,14,14,44,54,0,0,0,4.1,3.28,4.98,4.08,28.09,19.87,17.58,21.79,17.12,864.13,0.11,0.69,9.48,0.69,4.15,-134.07
207,0,0,0,0,0,2023,10,14,14,44,55,0,0,0,4.09,3.28,4.98,4.08,27.14,19.63,17.59,21.84,17.11,863.97,0.15,0.73,9.52,0.92,4.36,-134.59
208,0,0,0,0,0,2023,10,14,14,44,56,0,0,0,4.1,3.29,4.99,4.09,28.25,20.01,17.6,21.84,17.07,864.07,0.15,0.69,9.6,0.91,4.1,-133.78
209,0,0,0,0,0,2023,10,14,14,44,57,0,0,0,4.09,3.28,4.98,4.08,25.86,19.92,17.6,21.86,17.12,863.92,0.61,1.22,9.52,3.65,7.31,-134.67
210,0,0,0,0,0,2023,10,14,14,44,58,0,0,0,4.09,3.29,4.99,4.09,28.17,19.86,17.62,21.88,17.12,863.92,0.42,0.96,9.68,2.48,5.64,-134.69
211,0,0,0,0,0,2023,10,14,14,44,59,0,0,0,4.1,3.28,4.98,4.08,28.11,18.86,17.61,21.9,17.16,863.96,0.15,0.69,9.52,0.92,4.13,-133.86
212,0,0,0,0,0,2023,10,14,14,45,0,0,0,0,4.1,3.28,4.98,4.09,28.1,20.09,17.62,21.89,17.1,863.93,0.11,0.65,9.48,0.69,3.92,-134.17
213,0,0,0,0,0,2023,10,14,14,45,1,0,0,0,4.09,3.28,4.98,4.08,27.4,20.72,17.62,21.9,17.16,863.93,0.15,0.73,9.52,0.92,4.36,-134.25
214,0,0,0,0,0,2023,10,14,14,45,2,0,0,0,4.1,3.29,4.99,4.08,28.3,19.82,17.63,21.91,17.14,864,0.15,0.65,9.52,0.92,3.91,-134.07
215,0,0,0,0,0,2023,10,14,14,45,3,0,0,0,4.09,3.28,4.98,4,28.23,19.74,17.64,21.93,17.16,863.96,0.04,0.73,9.48,0.23,4.38,-133.69
216,0,0,0,0,0,2023,10,14,14,45,4,0,0,0,4.1,3.29,4.99,4.08,28.15,19.92,17.64,21.98,17.16,863.89,0.23,0.69,9.52,1.38,4.13,-134.41
217,0,0,0,0,0,2023,10,14,14,45,5,0,0,0,4.09,3.28,4.97,4.08,27.52,19.72,17.64,21.98,17.14,864.02,0.15,0.69,9.45,0.93,4.17,-133.91
218,0,0,0,0,0,2023,10,14,14,45,6,0,0,0,4.09,3.29,4.99,4.08,28.66,19.68,17.65,21.99,17.16,863.92,0.11,0.65,9.45,0.69,3.94,-133.83
219,0,0,0,0,0,2023,10,14,14,45,7,0,0,0,4.09,3.28,4.98,4.08,27.62,19.03,17.67,21.95,17.15,864.09,0.23,0.73,9.48,1.38,4.38,-134.26
220,0,0,0,0,0,2023,10,14,14,45,8,0,0,0,4.09,3.29,4.99,4.08,28.35,20.11,17.66,22.01,17.17,864.03,0.11,0.65,9.45,0.69,3.94,-134.06
221,0,0,0,0,0,2023,10,14,14,45,9,0,0,0,4.09,3.28,4.98,4.08,27.33,19.67,17.67,22.01,17.14,864.01,0.15,0.73,9.52,0.92,4.36,-134.02
222,0,0,0,0,0,2023,10,14,14,45,10,0,0,0,4.1,3.29,4.99,4.08,28.44,19.63,17.67,22.06,17.17,864.04,0.08,0.65,9.45,0.46,3.94,-133.71
223,0,0,0,0,0,2023,10,14,14,45,11,0,0,0,4.09,3.28,4.98,4.08,27.65,20.6,17.68,22.01,17.2,863.87,0.11,0.65,9.52,0.69,3.91,-133.95
224,0,0,0,0,0,2023,10,14,14,45,12,0,0,0,4.06,3.29,4.99,4.08,28.42,19.87,17.68,22.04,17.15,864.17,0.08,0.69,9.52,0.46,4.13,-133.2
225,0,0,0,0,0,2023,10,14,14,45,13,0,0,0,4.09,3.28,4.98,4.08,27.86,20.37,17.69,22.07,17.2,863.98,0.11,0.69,9.52,0.69,4.13,-133.65
226,0,0,0,0,0,2023,10,14,14,45,14,0,0,0,4.1,3.29,4.99,4.08,28.56,19.89,17.7,22.09,17.2,863.87,0.08,0.69,9.68,0.45,4.07,-133.6
227,0,0,0,0,0,2023,10,14,14,45,15,0,0,0,4.09,3.28,4.98,4.08,29.65,18.98,17.7,22.13,17.2,863.99,0.15,0.76,9.45,0.92,4.63,-133.88
228,0,0,0,0,0,2023,10,14,14,45,16,0,0,0,4.1,3.29,4.99,4.09,28.38,19.6,17.71,22.11,17.15,864.06,0.15,0.65,9.52,0.92,3.91,-133.92
229,0,0,0,0,0,2023,10,14,14,45,17,0,0,0,4.1,3.28,4.98,4.08,28.3,19.45,17.71,22.14,17.17,864.1,0.08,0.57,9.48,0.46,3.46,-133.94
230,0,0,0,0,0,2023,10,14,14,45,18,0,0,0,4.1,3.29,4.99,4.08,28.44,20.11,17.71,22.13,17.22,863.92,0.11,0.69,9.52,0.69,4.13,-133.68
231,0,0,0,0,0,2023,10,14,14,45,19,0,0,0,4.09,3.27,4.98,4.08,26.7,20.1,17.72,22.12,17.23,863.96,-0.31,0.31,9.33,-1.88,1.88,-134.04
232,0,0,0,0,0,2023,10,14,14,45,20,0,0,0,4.1,3.29,4.99,4,28.61,20.28,17.71,22.15,17.22,863.93,0,0.57,9.26,0,3.55,-133.44
233,0,0,0,0,0,2023,10,14,14,45,21,0,0,0,4.09,3.28,4.98,4.08,27.64,19.22,17.74,22.16,17.19,864.06,0.15,0.73,9.48,0.92,4.38,-133.91
234,0,0,0,0,0,2023,10,14,14,45,22,0,0,0,4.1,3.29,4.99,4,28.52,19.98,17.76,22.16,17.21,863.98,0.04,0.65,9.52,0.23,3.91,-133.99
235,0,0,0,0,0,2023,10,14,14,45,23,0,0,0,4.1,3.28,4.98,4.08,29.16,20.48,17.74,22.16,17.23,864.09,0.54,0.99,9.45,3.23,6,-134.73
236,0,0,0,0,0,2023,10,14,14,45,24,0,0,0,4.1,3.28,4.98,4.08,28.92,19.69,17.74,22.2,17.23,864.01,-1.64,-1.95,5.35,-16.1,-19.2,-134.28
237,0,0,0,0,0,2023,10,14,14,45,25,0,0,0,4.09,3.28,4.98,4.08,27.93,19.69,17.76,22.19,17.23,864,0.11,0.69,9.6,0.68,4.1,-133.48
238,0,0,0,0,0,2023,10,14,14,45,26,0,0,0,4.1,3.29,4.99,4.08,28.52,20.19,17.75,22.22,17.24,863.93,0,0.61,9.64,0,3.63,-133.48
239,0,0,0,0,0,2023,10,14,14,45,27,0,0,0,4.09,3.28,4.98,4.07,27.18,18.83,17.77,22.2,17.22,864.15,-0.04,0.34,9.18,-0.24,2.15,-134.29
240,0,0,0,0,0,2023,10,14,14,45,28,0,0,0,4.09,3.29,4.99,4.08,28.57,20.22,17.78,22.21,17.23,864.01,-0.15,0.57,9.33,-0.94,3.52,-133.35
241,0,0,0,0,0,2023,10,14,14,45,29,0,0,0,4.07,3.28,4.98,4.08,28.56,19.31,17.77,22.23,17.23,864.14,0.31,0.8,9.6,1.82,4.78,-134.55
242,0,0,0,0,0,2023,10,14,14,45,30,0,0,0,4.09,3.29,4.99,4.08,28.55,20.02,17.79,22.27,17.26,863.97,0.23,0.69,9.48,1.38,4.15,-134.8
243,0,0,0,0,0,2023,10,14,14,45,31,0,0,0,4.09,3.28,4.98,4.07,27.78,19.65,17.78,22.27,17.23,863.94,0.23,0.8,9.45,1.39,4.86,-134.06
244,0,0,0,0,0,2023,10,14,14,45,32,0,0,0,4.1,3.29,4.99,4.08,28.81,20.28,17.8,22.24,17.22,864.09,0.04,0.5,8.11,0.27,3.51,-134.42
245,0,0,0,0,0,2023,10,14,14,45,33,0,0,0,4.09,3.28,4.98,4.07,28.07,19.67,17.8,22.27,17.24,864.02,-0.73,-0.08,9.45,-4.4,-0.46,-134.53
246,0,0,0,0,0,2023,10,14,14,45,34,0,0,0,4.09,3.29,4.99,4.08,28.91,20.28,17.8,22.25,17.27,863.97,0.38,0.96,9.6,2.27,5.68,-134.33
247,0,0,0,0,0,2023,10,14,14,45,35,0,0,0,4.09,3.28,4.98,4.08,28.4,20.82,17.8,22.28,17.26,863.9,-0.04,0.5,9.37,-0.23,3.04,-134.67
248,0,0,0,0,0,2023,10,14,14,45,36,0,0,0,4.1,3.28,4.99,4.08,28.67,19.93,17.81,22.29,17.29,863.99,0.19,0.69,9.41,1.16,4.18,-135.02
249,0,0,0,0,0,2023,10,14,14,45,37,0,0,0,4.09,3.28,4.98,4.08,27.95,20.72,17.82,22.29,17.27,863.93,0.34,0.54,9.41,2.09,3.26,-135.5
250,0,0,0,0,0,2023,10,14,14,45,38,0,0,0,4.1,3.29,4.99,4.08,28.55,19.92,17.81,22.31,17.28,864.1,0.19,0.96,9.6,1.14,5.69,-134.63
251,0,0,0,0,0,2023,10,14,14,45,39,0,0,0,4.09,3.28,4.98,3.99,28.74,19.09,17.84,22.31,17.3,864.07,0,0.65,9.48,0,3.92,-133.96
252,0,0,0,0,0,2023,10,14,14,45,40,0,0,0,4.1,3.29,4.99,4.09,28.97,20.19,17.85,22.33,17.3,863.91,0.23,0.65,9.48,1.38,3.92,-134.4
253,0,0,0,0,0,2023,10,14,14,45,41,0,0,0,4.09,3.28,4.98,4.08,28.79,19.54,17.84,22.37,17.3,864.01,0.15,0.76,9.48,0.92,4.61,-134.51
254,0,0,0,0,0,2023,10,14,14,45,42,0,0,0,4.1,3.29,4.99,4.09,28.9,19.56,17.85,22.33,17.28,863.96,0.15,0.73,9.45,0.93,4.4,-133.73
255,0,0,0,0,0,2023,10,14,14,45,43,0,0,0,4.09,3.28,4.98,4.08,27.9,19.64,17.86,22.37,17.29,863.93,0.08,0.73,9.45,0.46,4.4,-133.55
256,0,0,0,0,0,2023,10,14,14,45,44,0,0,0,4.1,3.29,4.99,4.08,28.8,20.22,17.87,22.37,17.31,863.86,0.15,0.73,9.52,0.92,4.36,-133.07
257,0,0,0,0,0,2023,10,14,14,45,45,0,0,0,4.09,3.28,4.98,4.08,28.85,19.07,17.86,22.35,17.3,863.91,0.19,0.65,9.52,1.15,3.9,-134.36
258,0,0,0,0,0,2023,10,14,14,45,46,0,0,0,4.07,3.29,4.99,4.08,28.76,19.99,17.88,22.34,17.28,863.89,0.11,0.73,9.56,0.69,4.35,-134.18
259,0,0,0,0,0,2023,10,14,14,45,47,0,0,0,4.09,3.28,4.98,4.07,28.94,19.7,17.89,22.38,17.3,864.07,0.19,0.69,9.48,1.15,4.15,-134.9
260,0,0,0,0,0,2023,10,14,14,45,48,0,0,0,4.09,3.29,4.99,4.08,28.89,20.17,17.87,22.4,17.33,863.96,0.15,0.73,9.26,0.94,4.49,-133.81
261,0,0,0,0,0,2023,10,14,14,45,49,0,0,0,4.09,3.28,4.98,4.08,29.78,20.5,17.89,22.45,17.28,864.06,0.11,0.57,9.52,0.69,3.45,-134.54
262,0,0,0,0,0,2023,10,14,14,45,50,0,0,0,4.1,3.29,4.99,4.08,29.06,20.25,17.9,22.42,17.29,864.08,0.11,0.65,9.45,0.69,3.94,-133.67
263,0,0,0,0,0,2023,10,14,14,45,51,0,0,0,4.09,3.28,4.98,4.07,29.25,18.55,17.9,22.42,17.31,863.99,0.11,0.65,9.64,0.68,3.86,-134.72
264,0,0,0,0,0,2023,10,14,14,45,52,0,0,0,4.08,3.29,4.99,4.08,29.24,20.09,17.91,22.43,17.3,863.94,0.27,0.73,9.56,1.6,4.34,-134.03
265,0,0,0,0,0,2023,10,14,14,45,53,0,0,0,4.09,3.28,4.98,4.07,29.39,20.08,17.91,22.45,17.33,864.03,0.15,0.69,9.48,0.92,4.15,-134.69
266,0,0,0,0,0,2023,10,14,14,45,54,0,0,0,4.09,3.29,4.99,4.08,29.18,20.45,17.93,22.42,17.32,863.99,0.15,0.73,9.52,0.92,4.36,-133.59
267,0,0,0,0,0,2023,10,14,14,45,55,0,0,0,4.09,3.28,4.98,4.07,29.08,19.68,17.93,22.48,17.34,863.86,0.15,0.76,9.29,0.94,4.7,-133.69
268,0,0,0,0,0,2023,10,14,14,45,56,0,0,0,4.1,3.29,4.99,4.01,29.12,20.3,17.92,22.48,17.37,863.9,0.15,0.69,9.48,0.92,4.15,-133.91
269,0,0,0,0,0,2023,10,14,14,45,57,0,0,0,4.09,3.28,4.98,4.08,28.84,22.05,17.92,22.48,17.33,863.9,0.15,0.69,9.75,0.9,4.04,-134.24
270,0,0,0,0,0,2023,10,14,14,45,58,0,0,0,4.09,3.29,4.99,4.08,28.98,19.98,17.93,22.51,17.34,863.9,0.11,0.69,9.6,0.68,4.1,-134.54
271,0,0,0,0,0,2023,10,14,14,45,59,0,0,0,4.09,3.28,4.98,4.08,28.48,20.89,17.95,22.51,17.37,863.96,0.08,0.76,9.52,0.46,4.59,-133.63
272,0,0,0,0,0,2023,10,14,14,46,0,0,0,0,4.1,3.29,4.99,4.08,29.33,20.62,17.96,22.51,17.37,863.99,0.11,0.69,9.48,0.69,4.15,-133.59
273,0,0,0,0,0,2023,10,14,14,46,1,0,0,0,4.09,3.28,4.98,4.08,30.18,20.68,17.96,22.53,17.38,864.04,0.19,0.69,9.48,1.15,4.15,-134.19
274,0,0,0,0,0,2023,10,14,14,46,2,0,0,0,4.09,3.29,4.99,4.08,29.27,20.17,17.97,22.55,17.38,863.84,0.23,0.76,9.56,1.37,4.57,-135.49
275,0,0,0,0,0,2023,10,14,14,46,3,0,0,0,4.04,3.27,4.98,4.08,28.58,19.6,17.97,22.52,17.37,863.9,0.11,0.34,9.37,0.7,2.1,-134.64
276,0,0,0,0,0,2023,10,14,14,46,4,0,0,0,4.1,3.29,4.99,4.08,29.34,20.02,17.97,22.55,17.39,863.89,0,0.04,9.26,0,0.24,-134.84
277,0,0,0,0,0,2023,10,14,14,46,5,0,0,0,4.09,3.27,4.98,4.08,29.92,20.24,17.98,22.58,17.37,864.06,0.27,0.69,9.71,1.57,4.05,-135.45
278,0,0,0,0,0,2023,10,14,14,46,6,0,0,0,4.09,3.29,4.99,4.08,29.42,20.16,18,22.58,17.39,864.02,0.31,0.92,9.52,1.83,5.5,-134.34
279,0,0,0,0,0,2023,10,14,14,46,7,0,0,0,4.09,3.28,4.98,4.08,29.97,21.29,18.01,22.58,17.38,864,-0.04,0.42,9.14,-0.24,2.64,-135.3
280,0,0,0,0,0,2023,10,14,14,46,8,0,0,0,4.09,3.29,4.99,4.08,29.75,20.3,17.99,22.59,17.4,864.01,0.69,1.22,9.87,3.96,7.05,-134.79
281,0,0,0,0,0,2023,10,14,14,46,9,0,0,0,4.05,3.28,4.98,4.08,29.73,20.13,18.01,22.62,17.39,864,0.54,0.84,9.37,3.26,5.12,-135.22
282,0,0,0,0,0,2023,10,14,14,46,10,0,0,0,4.09,3.29,4.99,4.08,29.47,20.19,18.02,22.61,17.41,864.14,0.04,1.64,9.98,0.22,9.36,-132.01
283,0,0,0,0,0,2023,10,14,14,46,11,0,0,0,4.09,3.28,4.98,4.07,28.22,19.67,18.02,22.64,17.41,863.93,0.04,0.61,9.41,0.23,3.72,-134.52
284,0,0,0,0,0,2023,10,14,14,46,12,0,0,0,4.09,3.29,4.99,4.08,29.32,19.98,18.02,22.63,17.4,864.01,0.46,1.07,10.06,2.6,6.07,-133.89
285,0,0,0,0,0,2023,10,14,14,46,13,0,0,0,4.09,3.28,4.98,4.07,29.66,19.67,18.03,22.68,17.41,864.09,0.27,0.8,9.48,1.61,4.84,-135.14
286,0,0,0,0,0,2023,10,14,14,46,14,0,0,0,4.09,3.29,4.99,4.08,29.25,20.05,18.04,22.64,17.45,864.05,0.23,0.65,9.33,1.41,3.98,-134.72
287,0,0,0,0,0,2023,10,14,14,46,15,0,0,0,4.09,3.28,4.98,4.07,30.23,19.03,18.03,22.68,17.41,863.95,0.31,1.07,9.64,1.81,6.34,-134.62
288,0,0,0,0,0,2023,10,14,14,46,16,0,0,0,4.09,3.29,4.99,4.08,29.63,19.96,18.04,22.68,17.44,864.03,0.04,0.57,9.37,0.23,3.5,-134.07
289,0,0,0,0,0,2023,10,14,14,46,17,0,0,0,4.09,3.28,4.98,3.99,28.98,21.56,18.05,22.7,17.44,864.05,0.15,0.8,9.98,0.88,4.6,-134.83
290,0,0,0,0,0,2023,10,14,14,46,18,0,0,0,4.09,3.29,4.99,4.08,29.66,20.57,18.05,22.73,17.43,863.96,-3.14,-2.45,7.69,-21.24,-16.43,-127.83
291,0,0,0,0,0,2023,10,14,14,46,19,0,0,0,4.09,3.28,4.98,4.07,29.34,21.27,18.05,22.73,17.43,864.13,0.57,0.96,9.56,3.42,5.7,-135.28
292,0,0,0,0,0,2023,10,14,14,46,20,0,0,0,4.09,3.29,4.99,4.08,29.5,20.35,18.06,22.73,17.44,864.08,0,0.76,9.68,0,4.52,-134.05
293,0,0,0,0,0,2023,10,14,14,46,21,0,0,0,4.09,3.28,4.98,4.08,29.5,20.45,18.07,22.74,17.45,864,0.15,0.92,9.79,0.89,5.36,-134.16
294,0,0,0,0,0,2023,10,14,14,46,22,0,0,0,4.09,3.29,4.99,4.08,29.43,20.14,18.07,22.74,17.46,864.09,0.27,0.73,9.37,1.63,4.43,-134.53
295,0,0,0,0,0,2023,10,14,14,46,23,0,0,0,4.09,3.28,4.98,4.04,30.38,21.05,18.09,22.8,17.48,863.92,-0.11,0.84,9.1,-0.72,5.28,-133.68
296,0,0,0,0,0,2023,10,14,14,46,24,0,0,0,4.09,3.29,4.99,4.08,29.71,20.42,18.1,22.79,17.47,863.96,0.23,0.84,9.48,1.38,5.07,-134.9
297,0,0,0,0,0,2023,10,14,14,46,25,0,0,0,4.09,3.28,4.98,4.07,28.6,20.36,18.09,22.82,17.46,864.05,0.11,0.61,9.48,0.69,3.69,-134.81
298,0,0,0,0,0,2023,10,14,14,46,26,0,0,0,4.07,3.29,4.99,4.08,29.54,20.24,18.1,22.81,17.45,864.1,0.23,0.88,9.45,1.39,5.32,-134.5
299,0,0,0,0,0,2023,10,14,14,46,27,0,0,0,4.09,3.28,4.98,4.08,29.12,19.9,18.12,22.84,17.48,864.02,0.08,0.84,9.6,0.45,5.01,-134.38
300,0,0,0,0,0,2023,10,14,14,46,28,0,0,0,4.1,3.29,4.99,4.08,29.84,20.31,18.11,22.83,17.48,863.92,0.27,0.76,9.26,1.65,4.72,-134.92
301,0,0,0,0,0,2023,10,14,14,46,29,0,0,0,4.09,3.28,4.98,4.08,30.22,20.78,18.11,22.88,17.5,863.91,0.46,1.07,9.68,2.7,6.31,-134.22
302,0,0,0,0,0,2023,10,14,14,46,30,0,0,0,4.09,3.29,4.99,4.08,29.61,20.35,18.11,22.85,17.5,863.89,0.27,0.73,9.52,1.61,4.36,-134.56
303,0,0,0,0,0,2023,10,14,14,46,31,0,0,0,4.09,3.28,4.98,4.07,32.82,18.99,18.12,22.89,17.47,863.89,0.19,0.57,9.22,1.19,3.56,-135.15
304,0,0,0,0,0,2023,10,14,14,46,32,0,0,0,4.09,3.29,4.99,4.08,29.82,20.21,18.13,22.88,17.49,863.99,-0.04,0.8,9.94,-0.22,4.62,-133.5
305,0,0,0,0,0,2023,10,14,14,46,33,0,0,0,4.09,3.28,4.98,4.07,31,20.75,18.14,22.88,17.48,864.14,0.23,0.8,9.45,1.39,4.86,-134.29
306,0,0,0,0,0,2023,10,14,14,46,34,0,0,0,4.09,3.29,4.99,4.08,29.96,20.29,18.14,22.9,17.51,863.93,0.31,0.88,9.56,1.83,5.25,-135.12
307,0,0,0,0,0,2023,10,14,14,46,35,0,0,0,4.09,3.28,4.98,4.07,30.34,19.66,18.14,22.89,17.49,863.84,0.19,0.8,9.41,1.16,4.88,-134.49
308,0,0,0,0,0,2023,10,14,14,46,36,0,0,0,4.09,3.29,4.99,4.08,29.7,20.24,18.15,22.89,17.53,863.93,2.29,3.48,9.03,13.34,20.49,-132.69
309,0,0,0,0,0,2023,10,14,14,46,37,0,0,0,4.09,3.28,4.98,4.07,29.39,20.4,18.16,22.95,17.52,863.86,-0.34,0.65,9.6,-2.05,3.87,-138.37
310,0,0,0,0,0,2023,10,14,14,46,38,0,0,0,4.09,3.29,4.99,4.08,29.67,20.46,18.17,22.91,17.54,863.96,0.19,0.92,9.56,1.14,5.48,-138.48
311,0,0,0,0,0,2023,10,14,14,46,39,0,0,0,4.09,3.28,4.98,4.07,29.99,20.83,18.18,22.95,17.53,864.04,0.15,0.76,9.03,0.97,4.84,-138.52
312,0,0,0,0,0,2023,10,14,14,46,40,0,0,0,4.09,3.29,4.99,4.01,29.5,20.86,18.17,23.02,17.53,863.91,0.15,1.03,9.37,0.93,6.29,-138.21
313,0,0,0,0,0,2023,10,14,14,46,41,0,0,0,4.09,3.28,4.98,4.08,29.29,21.31,18.19,22.95,17.5,864.05,0.19,0.84,9.56,1.14,5.03,-138.98
314,0,0,0,0,0,2023,10,14,14,46,42,0,0,0,4.09,3.29,4.99,4.08,29.59,20.55,18.19,22.94,17.55,863.87,0.19,0.84,9.56,1.14,5.03,-138.45
315,0,0,0,0,0,2023,10,14,14,46,43,0,0,0,4.09,3.27,4.98,4.07,30.74,19.18,18.18,22.99,17.52,863.99,-0.04,0.61,9.22,-0.24,3.8,-139.26
316,0,0,0,0,0,2023,10,14,14,46,44,0,0,0,4.09,3.29,4.99,4.08,29.99,20.16,18.2,22.96,17.54,863.95,0.15,0.88,9.48,0.92,5.3,-138.25
317,0,0,0,0,0,2023,10,14,14,46,45,0,0,0,4.09,3.28,4.98,4.08,29.57,20.51,18.22,22.95,17.59,863.93,0.19,0.92,9.48,1.15,5.53,-138.79
318,0,0,0,0,0,2023,10,14,14,46,46,0,0,0,4.09,3.29,4.99,4.08,30.22,20.51,18.2,22.97,17.55,863.95,0.08,0.92,9.41,0.46,5.57,-137.86
319,0,0,0,0,0,2023,10,14,14,46,47,0,0,0,4.08,3.28,4.98,4.08,30.45,20.41,18.22,22.97,17.56,863.97,0.04,0.92,9.45,0.23,5.55,-138.55
320,0,0,0,0,0,2023,10,14,14,46,48,0,0,0,4.09,3.29,4.99,4.08,30.1,20.27,18.23,23,17.59,864.02,0.19,0.99,9.48,1.15,5.98,-138.68
321,0,0,0,0,0,2023,10,14,14,46,49,0,0,0,4.09,3.28,4.98,4.07,31.26,22.12,18.23,23.02,17.56,864.02,0,0.8,9.45,0,4.86,-138.49
322,0,0,0,0,0,2023,10,14,14,46,50,0,0,0,4.09,3.29,4.99,4.08,29.55,20.6,18.24,23.01,17.59,864.05,0.15,0.92,9.52,0.92,5.5,-138.58
323,0,0,0,0,0,2023,10,14,14,46,51,0,0,0,4.09,3.28,4.98,4.07,31.27,22.56,18.24,23.04,17.59,864.09,0.19,0.92,9.48,1.15,5.53,-138.2
324,0,0,0,0,0,2023,10,14,14,46,52,0,0,0,4.09,3.29,4.99,4.08,29.68,20.28,18.25,23.02,17.58,863.98,0.11,0.92,9.45,0.69,5.55,-138.29
325,0,0,0,0,0,2023,10,14,14,46,53,0,0,0,4.09,3.28,4.98,4.07,30.99,20.93,18.27,23.04,17.61,863.99,0.23,0.92,9.64,1.36,5.44,-138.67
326,0,0,0,0,0,2023,10,14,14,46,54,0,0,0,4.09,3.29,4.99,4.08,29.89,20.22,18.27,23.06,17.59,863.98,-0.11,0.73,9.37,-0.7,4.43,-138.51
327,0,0,0,0,0,2023,10,14,14,46,55,0,0,0,4.08,3.28,4.98,4.07,30.74,20.92,18.26,23.09,17.62,864.05,0.08,0.88,9.52,0.46,5.28,-139.08
328,0,0,0,0,0,2023,10,14,14,46,56,0,0,0,4.09,3.29,4.99,4.08,29.49,20.56,18.26,23.08,17.6,863.96,0.19,0.96,9.29,1.17,5.87,-138.71
329,0,0,0,0,0,2023,10,14,14,46,57,0,0,0,4.09,3.28,4.98,3.99,30.36,20.44,18.27,23.09,17.64,863.92,0.04,0.84,9.48,0.23,5.07,-138.39
330,0,0,0,0,0,2023,10,14,14,46,58,0,0,0,4.09,3.29,4.99,4.08,29.72,20.36,18.28,23.1,17.64,863.93,0,0.65,9.33,0,3.99,-139.17
331,0,0,0,0,0,2023,10,14,14,46,59,0,0,0,4.08,3.28,4.98,4.07,29.38,20.29,18.3,23.09,17.62,863.99,0,0.92,9.64,0,5.44,-137.92
332,0,0,0,0,0,2023,10,14,14,47,0,0,0,0,4.09,3.29,4.99,4.08,30.52,19.88,18.29,23.09,17.6,864.03,-0.15,1.07,10.14,-0.86,6.03,-137.44
333,0,0,0,0,0,2023,10,14,14,47,1,0,0,0,4.08,3.28,4.98,4.07,32.64,19.85,18.29,23.1,17.63,863.96,0.04,0.99,9.52,0.23,5.96,-138.33
334,0,0,0,0,0,2023,10,14,14,47,2,0,0,0,4.09,3.29,4.99,4.08,30.3,21.02,18.31,23.14,17.65,863.96,0.19,0.88,9.48,1.15,5.3,-138.65
335,0,0,0,0,0,2023,10,14,14,47,3,0,0,0,4.09,3.28,4.98,4.08,32.05,20.72,18.3,23.12,17.63,863.78,0.11,0.88,9.48,0.69,5.3,-138.99
336,0,0,0,0,0,2023,10,14,14,47,4,0,0,0,4.09,3.29,4.99,4.08,30.35,20.6,18.33,23.13,17.64,864.08,0.08,0.92,9.45,0.46,5.55,-138.96
337,0,0,0,0,0,2023,10,14,14,47,5,0,0,0,4.09,3.28,4.98,4.07,31.92,20.84,18.32,23.16,17.63,863.84,0.11,0.88,9.6,0.68,5.24,-139.06
338,0,0,0,0,0,2023,10,14,14,47,6,0,0,0,4.05,3.29,4.99,4.08,30.1,20.56,18.34,23.16,17.66,863.91,0.08,0.84,9.6,0.45,5.01,-138.47
339,0,0,0,0,0,2023,10,14,14,47,7,0,0,0,4.09,3.28,4.98,4.08,30.1,20.23,18.34,23.17,17.66,863.98,0.08,0.92,9.52,0.46,5.51,-138.51
340,0,0,0,0,0,2023,10,14,14,47,8,0,0,0,4.09,3.29,4.99,4.08,30.06,20.06,18.35,23.2,17.68,864.17,0.11,0.92,9.33,0.7,5.62,-138.66
341,0,0,0,0,0,2023,10,14,14,47,9,0,0,0,4.09,3.28,4.98,4.08,33.81,20.51,18.35,23.2,17.66,864.01,0.15,0.88,9.52,0.92,5.28,-138.9
342,0,0,0,0,0,2023,10,14,14,47,10,0,0,0,4.07,3.29,4.99,4.08,30.87,20.76,18.35,23.19,17.66,864.03,0.04,0.88,9.29,0.23,5.41,-138.53
343,0,0,0,0,0,2023,10,14,14,47,11,0,0,0,4.08,3.28,4.98,4.07,32.34,19.24,18.37,23.23,17.66,863.98,0.19,0.88,9.37,1.16,5.36,-138.74
344,0,0,0,0,0,2023,10,14,14,47,12,0,0,0,4.09,3.29,4.99,4.08,30.18,20.38,18.37,23.2,17.68,864.01,0.15,0.92,9.48,0.92,5.53,-138.25
345,0,0,0,0,0,2023,10,14,14,47,13,0,0,0,4.09,3.28,4.98,4.08,30.74,20.3,18.36,23.23,17.66,863.95,0.23,0.88,9.52,1.37,5.28,-138.63
346,0,0,0,0,0,2023,10,14,14,47,14,0,0,0,4.09,3.29,4.99,3.99,30.03,20.4,18.38,23.23,17.7,863.89,0.08,0.92,9.52,0.46,5.51,-138.68
347,0,0,0,0,0,2023,10,14,14,47,15,0,0,0,4.08,3.28,4.98,4.07,29.14,20.32,18.38,23.27,17.7,864.07,0.08,0.76,9.41,0.46,4.65,-138.7
348,0,0,0,0,0,2023,10,14,14,47,16,0,0,0,4.09,3.29,4.99,4.08,30.06,20.65,18.39,23.26,17.71,863.94,0.08,1.03,9.45,0.46,6.24,-138.03
349,0,0,0,0,0,2023,10,14,14,47,17,0,0,0,4.08,3.28,4.98,4.07,29.76,20.31,18.4,23.3,17.66,863.93,0.19,0.84,9.48,1.15,5.07,-139.22
350,0,0,0,0,0,2023,10,14,14,47,18,0,0,0,4.09,3.29,4.99,4.08,30.13,20.29,18.41,23.3,17.77,864,2.75,0.57,8.41,18.08,3.71,-149.31
351,0,0,0,0,0,2023,10,14,14,47,19,0,0,0,4.09,3.27,4.98,4.07,30.26,22.19,18.41,23.3,17.71,863.98,6.23,0.96,7.34,40.09,5.67,-149.37
352,0,0,0,0,0,2023,10,14,14,47,20,0,0,0,4.09,3.29,4.99,4.08,29.82,20.84,18.39,23.3,17.71,863.96,7,0.61,6.43,47.32,3.69,-148.65
353,0,0,0,0,0,2023,10,14,14,47,21,0,0,0,4.09,3.28,4.98,4.07,29.67,21.7,18.41,23.33,17.74,863.93,6.85,0.73,6.73,45.32,4.33,-149.28
354,0,0,0,0,0,2023,10,14,14,47,22,0,0,0,4.09,3.29,4.99,4.08,30.38,20.11,18.41,23.31,17.73,863.79,6.58,0.8,6.96,43.19,4.79,-149.11
355,0,0,0,0,0,2023,10,14,14,47,23,0,0,0,4.05,3.28,4.98,4.07,32.77,21.29,18.44,23.34,17.73,863.96,6.92,0.69,6.58,46.3,4.12,-148.19
356,0,0,0,0,0,2023,10,14,14,47,24,0,0,0,4.09,3.29,4.99,4.08,30.52,20.33,18.44,23.35,17.73,863.9,6.73,0.69,6.81,44.53,4.11,-148.9
357,0,0,0,0,0,2023,10,14,14,47,25,0,0,0,4.09,3.28,4.98,4.07,30.1,20.33,18.43,23.41,17.75,863.83,6.96,0.76,6.62,46.26,4.55,-148.06
358,0,0,0,0,0,2023,10,14,14,47,26,0,0,0,4.09,3.29,4.99,4.08,30.55,20.2,18.45,23.38,17.75,863.84,6.85,0.76,6.81,44.98,4.53,-148.9
359,0,0,0,0,0,2023,10,14,14,47,27,0,0,0,4.09,3.27,4.98,4.07,30.25,19.95,18.46,23.39,17.79,863.98,7,0.69,6.5,46.95,4.12,-148.44
360,0,0,0,0,0,2023,10,14,14,47,28,0,0,0,4.09,3.29,4.99,4.08,30.14,20.25,18.47,23.41,17.78,863.95,6.65,0.73,7,43.4,4.3,-149.59
361,0,0,0,0,0,2023,10,14,14,47,29,0,0,0,4.08,3.28,4.98,4.07,30.52,18.8,18.47,23.44,17.77,863.97,6.92,0.76,6.69,45.78,4.54,-148.37
362,0,0,0,0,0,2023,10,14,14,47,30,0,0,0,4.09,3.29,4.99,4.08,30.11,20.92,18.47,23.43,17.77,863.93,7.27,0.73,6.31,48.84,4.32,-147.2
363,0,0,0,0,0,2023,10,14,14,47,31,0,0,0,4.09,3.28,4.98,4.06,31.56,20.89,18.49,23.45,17.79,863.94,6.77,0.73,6.77,44.84,4.34,-148.92
364,0,0,0,0,0,2023,10,14,14,47,32,0,0,0,4.09,3.29,4.99,4.08,30.38,20.93,18.47,23.45,17.77,863.88,7,0.69,6.54,46.78,4.11,-148.44
365,0,0,0,0,0,2023,10,14,14,47,33,0,0,0,4.09,3.28,4.98,4.07,30.33,20.71,18.48,23.49,17.81,863.88,6.85,0.73,6.62,45.8,4.36,-148.69
366,0,0,0,0,0,2023,10,14,14,47,34,0,0,0,4.09,3.29,4.99,4.08,30.25,20.93,18.49,23.5,17.82,863.95,6.88,0.73,6.46,46.63,4.4,-148.23
367,0,0,0,0,0,2023,10,14,14,47,35,0,0,0,4.08,3.27,4.98,4.07,31.36,19.81,18.5,23.49,17.81,863.99,6.88,0.76,6.73,45.46,4.54,-148.44
368,0,0,0,0,0,2023,10,14,14,47,36,0,0,0,4.09,3.29,4.99,4.08,29.98,20.85,18.51,23.5,17.8,863.89,6.85,0.88,6.69,45.4,5.25,-148.64
369,0,0,0,0,0,2023,10,14,14,47,37,0,0,0,4.08,3.28,4.98,4,31.89,22.4,18.52,23.51,17.82,863.88,6.62,0.69,6.88,43.72,4.12,-149.31
370,0,0,0,0,0,2023,10,14,14,47,38,0,0,0,4.09,3.29,4.99,4.08,30.53,20.81,18.52,23.54,17.8,864.06,6.65,0.69,6.81,44.2,4.14,-149.2
371,0,0,0,0,0,2023,10,14,14,47,39,0,0,0,4.09,3.28,4.98,4.07,29.77,20.56,18.52,23.53,17.82,864.1,6.39,0.76,7,42.21,4.62,-148.86
372,0,0,0,0,0,2023,10,14,14,47,40,0,0,0,4.09,3.29,4.99,4.08,30.08,20.38,18.52,23.52,17.84,863.93,6.77,0.69,6.73,45.01,4.12,-149.03
373,0,0,0,0,0,2023,10,14,14,47,41,0,0,0,4.08,3.28,4.98,4.07,31.21,21.11,18.54,23.56,17.81,864.03,6.65,0.61,7.08,43.14,3.6,-149.69
374,0,0,0,0,0,2023,10,14,14,47,42,0,0,0,4.09,3.29,4.99,4.08,29.72,20.68,18.54,23.59,17.88,863.96,6.77,0.76,6.69,45.14,4.59,-148.33
375,0,0,0,0,0,2023,10,14,14,47,43,0,0,0,4.08,3.28,4.98,4.07,32.06,23.31,18.56,23.59,17.84,863.98,6.46,0.73,6.88,43.04,4.4,-149.23
376,0,0,0,0,0,2023,10,14,14,47,44,0,0,0,4.06,3.29,4.99,4.08,30.41,20.85,18.55,23.63,17.88,863.99,6.69,0.73,6.77,44.51,4.37,-148.68
377,0,0,0,0,0,2023,10,14,14,47,45,0,0,0,4.09,3.28,4.98,4.07,30.4,20.73,18.56,23.59,17.85,863.95,6.69,0.73,6.62,45.16,4.42,-148.93
378,0,0,0,0,0,2023,10,14,14,47,46,0,0,0,4.09,3.29,4.99,4.08,30.18,20.54,18.57,23.63,17.84,863.94,6.65,0.73,6.88,43.87,4.34,-149.32
379,0,0,0,0,0,2023,10,14,14,47,47,0,0,0,4.08,3.28,4.98,4.08,30.94,20.79,18.58,23.66,17.88,864.04,6.73,0.8,6.77,44.64,4.81,-148.58
380,0,0,0,0,0,2023,10,14,14,47,48,0,0,0,4.09,3.29,4.99,4.08,30.46,21.01,18.57,23.63,17.91,863.87,6.77,0.73,6.69,45.16,4.37,-148.9
381,0,0,0,0,0,2023,10,14,14,47,49,0,0,0,4.09,3.28,4.98,4.07,29.85,21.78,18.58,23.66,17.88,863.88,6.54,0.8,7.04,42.72,4.78,-149.17
382,0,0,0,0,0,2023,10,14,14,47,50,0,0,0,4.09,3.29,4.99,4.08,30.34,20.77,18.59,23.64,17.84,863.92,6.73,0.73,6.85,44.36,4.33,-149.05
383,0,0,0,0,0,2023,10,14,14,47,51,0,0,0,4.08,3.28,4.98,4.07,29.92,20.02,18.6,23.66,17.89,863.96,6.65,0.73,6.77,44.35,4.38,-148.93
384,0,0,0,0,0,2023,10,14,14,47,52,0,0,0,4.09,3.29,4.99,4.08,30.3,20.48,18.59,23.71,17.89,863.91,6.69,0.69,6.73,44.69,4.15,-148.69
385,0,0,0,0,0,2023,10,14,14,47,53,0,0,0,4.09,3.28,4.98,4.07,30.81,19.2,18.62,23.7,17.88,863.96,6.65,0.76,6.85,44.01,4.58,-149.51
386,0,0,0,0,0,2023,10,14,14,47,54,0,0,0,4.09,3.29,4.99,3.99,30.45,21.14,18.63,23.69,17.87,864.02,7.11,0.73,6.39,47.9,4.35,-148.07
387,0,0,0,0,0,2023,10,14,14,47,55,0,0,0,4.08,3.27,4.98,4.07,31.36,22.33,18.64,23.74,17.91,864,6.96,0.76,6.58,46.43,4.57,-148.29
388,0,0,0,0,0,2023,10,14,14,47,56,0,0,0,4.09,3.29,4.99,4.08,30.34,20.42,18.63,23.7,17.89,863.99,7.04,0.69,6.35,47.78,4.15,-148.22
389,0,0,0,0,0,2023,10,14,14,47,57,0,0,0,4.08,3.28,4.98,4.07,29.09,21.35,18.63,23.71,17.91,863.92,6.92,0.69,6.62,46.14,4.11,-148.5
390,0,0,0,0,0,2023,10,14,14,47,58,0,0,0,4.09,3.29,4.99,4.08,30.17,21,18.65,23.75,17.91,863.95,6.96,0.73,6.46,46.94,4.37,-147.98
391,0,0,0,0,0,2023,10,14,14,47,59,0,0,0,4.08,3.28,4.98,4.07,29.01,20.37,18.64,23.75,17.91,863.92,6.88,0.76,6.65,45.78,4.57,-148.9
392,0,0,0,0,0,2023,10,14,14,48,0,0,0,0,4.09,3.29,4.99,4.08,30.28,20.88,18.66,23.77,17.91,863.94,6.77,0.8,6.73,44.96,4.81,-148.97
393,0,0,0,0,0,2023,10,14,14,48,1,0,0,0,4.07,3.27,4.98,4.07,29.88,21.3,18.66,23.77,17.95,864.06,6.62,0.76,6.92,43.53,4.57,-149.24
394,0,0,0,0,0,2023,10,14,14,48,2,0,0,0,4.09,3.29,4.99,4.08,30.18,20.75,18.68,23.79,17.94,864.03,6.69,0.73,6.73,44.67,4.38,-149.04
395,0,0,0,0,0,2023,10,14,14,48,3,0,0,0,4.05,3.28,4.98,4.07,33.36,19.68,18.69,23.82,17.99,863.9,6.69,0.73,6.85,44.19,4.34,-149.23
396,0,0,0,0,0,2023,10,14,14,48,4,0,0,0,4.09,3.29,4.99,4.08,30.44,21.02,18.69,23.81,17.96,864.07,6.73,0.76,6.81,44.5,4.57,-148.98
397,0,0,0,0,0,2023,10,14,14,48,5,0,0,0,4.08,3.27,4.98,4.07,31.15,21.34,18.69,23.84,17.98,863.99,6.65,0.76,6.77,44.33,4.61,-149.65
398,0,0,0,0,0,2023,10,14,14,48,6,0,0,0,4.09,3.29,4.99,4.08,30.22,20.65,18.7,23.84,17.96,864.03,6.65,0.73,6.73,44.51,4.39,-148.96
399,0,0,0,0,0,2023,10,14,14,48,7,0,0,0,4.07,3.28,4.98,4.07,30.71,22.23,18.7,23.85,17.94,863.97,6.62,0.73,6.96,43.39,4.33,-149.11
400,0,0,0,0,0,2023,10,14,14,48,8,0,0,0,4.09,3.29,4.99,4.08,29.99,21.21,18.69,23.88,17.99,863.85,6.62,0.69,6.81,44.04,4.15,-148.97
401,0,0,0,0,0,2023,10,14,14,48,9,0,0,0,4.08,3.28,4.98,4.07,33.06,21.15,18.72,23.86,17.96,864.02,6.69,0.73,6.92,43.88,4.32,-149.11
402,0,0,0,0,0,2023,10,14,14,48,10,0,0,0,4.09,3.29,4.99,4.08,30.38,20.86,18.72,23.88,17.98,864.07,6.62,0.69,6.77,44.2,4.16,-149.27
403,0,0,0,0,0,2023,10,14,14,48,11,0,0,0,4.08,3.27,4.98,3.99,31.85,21.57,18.72,23.9,18,863.77,6.62,0.73,6.92,43.55,4.34,-149.06
404,0,0,0,0,0,2023,10,14,14,48,12,0,0,0,4.09,3.29,4.99,4.08,30.96,20.4,18.74,23.95,18.03,864.04,6.62,0.73,6.88,43.71,4.35,-149.08
405,0,0,0,0,0,2023,10,14,14,48,13,0,0,0,4.08,3.28,4.98,4.08,33.12,21.4,18.75,23.95,17.99,864.06,5.51,0.61,7.65,35.67,3.71,-150.97
406,0,0,0,0,0,2023,10,14,14,48,14,0,0,0,4.09,3.29,4.99,4.08,30.12,20.6,18.74,23.95,18.05,863.91,1.99,0.61,9.29,12.05,3.68,-147.03
407,0,0,0,0,0,2023,10,14,14,48,15,0,0,0,4.09,3.28,4.98,4.07,30.66,21.08,18.76,23.93,18.01,863.95,0.38,0.8,9.22,2.37,4.98,-142.44
408,0,0,0,0,0,2023,10,14,14,48,16,0,0,0,4.09,3.29,4.99,4.08,30.79,21.11,18.75,23.98,18,863.99,0.46,0.76,9.37,2.79,4.66,-141.2
409,0,0,0,0,0,2023,10,14,14,48,17,0,0,0,4.08,3.27,4.98,4.07,33.18,20.57,18.76,23.95,17.98,864.11,0.54,0.76,9.52,3.21,4.59,-142.61
410,0,0,0,0,0,2023,10,14,14,48,18,0,0,0,4.09,3.29,4.99,4.08,29.89,21.65,18.77,23.97,18.05,864.05,0.27,1.22,9.22,1.65,7.56,-142.56
411,0,0,0,0,0,2023,10,14,14,48,19,0,0,0,4.08,3.27,4.98,4.07,32.53,20.08,18.77,24,18.03,863.98,-0.84,0.5,9.26,-5.19,3.06,-145.26
412,0,0,0,0,0,2023,10,14,14,48,20,0,0,0,4.06,3.29,4.99,4.08,30.52,20.75,18.78,24,18.05,863.81,-0.73,0.42,9.6,-4.32,2.5,-146.16
413,0,0,0,0,0,2023,10,14,14,48,21,0,0,0,4.08,3.28,4.98,4.07,31.43,20.61,18.79,24,18.06,863.95,-0.76,0.46,9.48,-4.61,2.76,-145.84
414,0,0,0,0,0,2023,10,14,14,48,22,0,0,0,4.09,3.29,4.99,4.08,30.61,20.61,18.81,23.98,18.04,864.05,-0.76,0.42,9.56,-4.57,2.51,-144.76
415,0,0,0,0,0,2023,10,14,14,48,23,0,0,0,4.08,3.28,4.98,4.07,30.88,20.44,18.81,24.04,18.05,863.96,-0.73,0.46,9.52,-4.36,2.75,-146.27
416,0,0,0,0,0,2023,10,14,14,48,24,0,0,0,4.09,3.29,4.99,4.08,30.46,21.07,18.82,24.01,18.09,864,-0.76,0.5,9.48,-4.6,2.99,-145.56
417,0,0,0,0,0,2023,10,14,14,48,25,0,0,0,4.08,3.28,4.98,4.07,30.62,20.6,18.82,23.99,18.07,864.09,-0.76,0.38,9.56,-4.57,2.28,-146.35
418,0,0,0,0,0,2023,10,14,14,48,26,0,0,0,4.09,3.29,4.99,4.08,31.08,20.46,18.84,24,18.06,863.91,-0.76,0.46,9.48,-4.61,2.76,-146.16
419,0,0,0,0,0,2023,10,14,14,48,27,0,0,0,4.08,3.28,4.98,4.07,30.81,21.07,18.82,24.02,18.09,864.06,-0.8,0.38,9.48,-4.84,2.3,-145.3
420,0,0,0,0,0,2023,10,14,14,48,28,0,0,0,4.09,3.29,4.99,4.08,30.94,21.22,18.83,24.01,18.05,863.87,-0.88,0.42,9.48,-5.29,2.53,-145.45
421,0,0,0,0,0,2023,10,14,14,48,29,0,0,0,4.08,3.28,4.98,4.07,30.3,21.28,18.85,24.05,18.05,864.07,-0.8,0.38,9.68,-4.74,2.26,-146.13
422,0,0,0,0,0,2023,10,14,14,48,30,0,0,0,4.09,3.29,4.99,4.08,30.62,20.9,18.86,24.03,18.1,863.99,-0.8,0.46,9.52,-4.82,2.75,-145.61
423,0,0,0,0,0,2023,10,14,14,48,31,0,0,0,4.08,3.28,4.98,4.07,33.11,20.23,18.86,24.05,18.1,863.85,-0.8,0.38,9.48,-4.84,2.3,-146.07
424,0,0,0,0,0,2023,10,14,14,48,32,0,0,0,4.09,3.29,4.99,4.08,30.99,21.05,18.86,24.07,18.09,863.92,-0.69,0.46,9.48,-4.15,2.76,-146.17
425,0,0,0,0,0,2023,10,14,14,48,33,0,0,0,4.08,3.28,4.98,4.07,32.84,20.62,18.86,24.05,18.14,863.91,-0.88,0.38,9.48,-5.29,2.3,-146.14
426,0,0,0,0,0,2023,10,14,14,48,34,0,0,0,4.09,3.29,4.99,4,30.87,21.13,18.88,24.05,18.12,863.93,-1.19,0.73,9.6,-7.02,4.3,-143.91
427,0,0,0,0,0,2023,10,14,14,48,35,0,0,0,4.08,3.28,4.98,4.07,34.03,21.35,18.89,24.05,18.13,863.87,0.15,-0.27,8.91,0.98,-1.72,-149.85
428,0,0,0,0,0,2023,10,14,14,48,36,0,0,0,4.09,3.29,4.99,4.08,31.39,20.35,18.89,24.1,18.12,864.03,-0.23,-0.42,11.32,-1.16,-2.13,-148.99
429,0,0,0,0,0,2023,10,14,14,48,37,0,0,0,4.08,3.28,4.98,4.07,31.61,20.23,18.89,24.05,18.13,863.96,-0.34,0.73,10.52,-1.87,3.95,-146.28
430,0,0,0,0,0,2023,10,14,14,48,38,0,0,0,4.09,3.29,4.99,4.08,30.8,20.91,18.9,24.07,18.16,863.86,-0.73,0.38,9.64,-4.31,2.27,-146.43
431,0,0,0,0,0,2023,10,14,14,48,39,0,0,0,4.08,3.27,4.98,4.07,32.92,22.48,18.9,24.09,18.13,863.94,-0.38,0.69,10.56,-2.07,3.73,-145.84
432,0,0,0,0,0,2023,10,14,14,48,40,0,0,0,4.09,3.29,4.99,4.08,30.79,21.36,18.91,24.05,18.16,864.07,-0.5,0.34,9.68,-2.94,2.03,-146.17
433,0,0,0,0,0,2023,10,14,14,48,41,0,0,0,4.04,3.28,4.98,4.07,31.85,21.47,18.92,24.14,18.21,864.08,-0.99,0.61,9.68,-5.86,3.6,-144.7
434,0,0,0,0,0,2023,10,14,14,48,42,0,0,0,4.09,3.29,4.99,4.08,30.94,21.14,18.93,24.13,18.17,863.96,-0.84,0.69,9.48,-5.06,4.14,-143.83
435,0,0,0,0,0,2023,10,14,14,48,43,0,0,0,4.08,3.28,4.98,4.07,32.02,20.3,18.93,24.1,18.16,863.88,-3.63,0.88,7.99,-24.31,5.72,-134.03
436,0,0,0,0,0,2023,10,14,14,48,44,0,0,0,4.09,3.29,4.99,4.08,31.08,21.31,18.95,24.1,18.17,864.13,-0.69,0.57,9.45,-4.16,3.47,-146.06
437,0,0,0,0,0,2023,10,14,14,48,45,0,0,0,4.08,3.28,4.98,4.07,31.78,21.63,18.97,24.09,18.2,863.91,-0.61,0.31,9.33,-3.75,1.87,-146.1
438,0,0,0,0,0,2023,10,14,14,48,46,0,0,0,4.09,3.28,4.99,4.08,30.8,21.12,18.95,24.13,18.2,863.88,-0.84,0.54,9.48,-5.06,3.22,-145.14
439,0,0,0,0,0,2023,10,14,14,48,47,0,0,0,4.08,3.27,4.98,4.07,34.77,20.68,18.97,24.15,18.2,863.87,-0.96,0.5,9.6,-5.68,2.95,-145.92
440,0,0,0,0,0,2023,10,14,14,48,48,0,0,0,4.09,3.29,4.99,4.08,31.18,20.97,18.96,24.13,18.16,863.95,-0.76,0.38,9.52,-4.59,2.29,-145.97
441,0,0,0,0,0,2023,10,14,14,48,49,0,0,0,4.08,3.28,4.98,4.07,32.79,20.44,18.98,24.1,18.22,864.05,-1.07,0.57,9.48,-6.43,3.44,-145.1
442,0,0,0,0,0,2023,10,14,14,48,50,0,0,0,4.09,3.29,4.99,4.08,31.27,20.98,18.98,24.13,18.17,864.02,-1.11,0.23,9.68,-6.54,1.35,-145.96
443,0,0,0,0,0,2023,10,14,14,48,51,0,0,0,4.08,3.28,4.98,4,31.85,22.86,18.99,24.14,18.21,864.03,-0.76,0.34,9.6,-4.55,2.05,-146.78
444,0,0,0,0,0,2023,10,14,14,48,52,0,0,0,4.09,3.29,4.99,4.08,31.03,21.26,19,24.16,18.23,863.93,-0.5,0.31,9.56,-2.98,1.83,-146.4
445,0,0,0,0,0,2023,10,14,14,48,53,0,0,0,4.08,3.28,4.98,4.07,31.37,21.05,19.01,24.16,18.21,864.16,-0.92,0.34,9.79,-5.35,2,-145.6
446,0,0,0,0,0,2023,10,14,14,48,54,0,0,0,4.09,3.29,4.99,4.08,31.36,20.88,19.02,24.16,18.28,864.14,-0.61,0.38,9.68,-3.62,2.26,-145.67
447,0,0,0,0,0,2023,10,14,14,48,55,0,0,0,4.08,3.28,4.98,4.06,32.64,21.09,19.02,24.14,18.23,863.97,-0.84,0.34,9.52,-5.05,2.06,-145.83
448,0,0,0,0,0,2023,10,14,14,48,56,0,0,0,4.09,3.29,4.99,4.08,31.22,20.88,19.02,24.18,18.26,863.89,-0.57,0.34,9.6,-3.42,2.05,-146.06
449,0,0,0,0,0,2023,10,14,14,48,57,0,0,0,4.08,3.28,4.98,4.07,30.62,20.97,19.03,24.16,18.24,864.02,-0.76,0.42,9.56,-4.57,2.51,-146.41
450,0,0,0,0,0,2023,10,14,14,48,58,0,0,0,4.05,3.29,4.99,4.08,31.51,21.31,19.03,24.17,18.24,863.99,-0.73,0.42,9.48,-4.38,2.53,-145.87
451,0,0,0,0,0,2023,10,14,14,48,59,0,0,0,4.08,3.28,4.98,4.07,32.76,22.82,19.02,24.23,18.27,863.9,-0.84,0.42,9.6,-5,2.5,-145.98
452,0,0,0,0,0,2023,10,14,14,49,0,0,0,0,4.09,3.29,4.99,4.08,31.32,21.36,19.04,24.22,18.26,864.13,-0.38,0.61,9.14,-2.39,3.83,-146.51
453,0,0,0,0,0,2023,10,14,14,49,1,0,0,0,4.08,3.28,4.98,4.07,33.81,22.73,19.04,24.16,18.29,863.96,-0.8,0.27,9.52,-4.82,1.6,-146.33
454,0,0,0,0,0,2023,10,14,14,49,2,0,0,0,4.09,3.29,4.99,4.07,31.2,21.13,19.05,24.23,18.27,864.11,-1.15,0.46,9.41,-6.94,2.77,-144.7
455,0,0,0,0,0,2023,10,14,14,49,3,0,0,0,4.08,3.27,4.98,4.07,33.04,21.13,19.06,24.23,18.33,863.96,-0.84,0.27,9.71,-4.95,1.57,-146.45
456,0,0,0,0,0,2023,10,14,14,49,4,0,0,0,4.09,3.29,4.99,4.07,31.36,21.52,19.06,24.23,18.28,863.89,-0.8,0.31,9.64,-4.76,1.81,-146.39
457,0,0,0,0,0,2023,10,14,14,49,5,0,0,0,4.08,3.27,4.98,4.07,32.2,21.11,19.07,24.23,18.31,863.89,-0.84,0.5,9.6,-5,2.95,-145.76
458,0,0,0,0,0,2023,10,14,14,49,6,0,0,0,4.09,3.29,4.99,4.08,31.28,21.21,19.08,24.21,18.3,863.91,-0.61,0.5,9.6,-3.64,2.96,-146.5
459,0,0,0,0,0,2023,10,14,14,49,7,0,0,0,4.08,3.28,4.98,4.06,32.64,21.45,19.1,24.24,18.3,863.98,-0.76,0.31,9.64,-4.54,1.81,-146.49
460,0,0,0,0,0,2023,10,14,14,49,8,0,0,0,4.09,3.29,4.99,4.07,31.17,21.23,19.1,24.23,18.28,864.07,-0.8,0.42,9.45,-4.85,2.54,-145.99
461,0,0,0,0,0,2023,10,14,14,49,9,0,0,0,4.08,3.28,4.98,4.07,31.29,23.13,19.1,24.24,18.3,863.95,-0.76,0.46,9.56,-4.57,2.74,-145.16
462,0,0,0,0,0,2023,10,14,14,49,10,0,0,0,4.09,3.29,4.99,4.07,31.11,21.31,19.1,24.25,18.29,863.94,-0.8,0.46,9.41,-4.87,2.78,-145.7
463,0,0,0,0,0,2023,10,14,14,49,11,0,0,0,4.06,3.28,4.98,4.06,33.06,22.62,19.11,24.27,18.31,863.93,-0.65,0.46,9.48,-3.92,2.76,-146.19
464,0,0,0,0,0,2023,10,14,14,49,12,0,0,0,4.09,3.29,4.99,4.08,31.32,21.01,19.11,24.27,18.34,864.1,-1.03,0.5,9.64,-6.11,2.94,-145.4
465,0,0,0,0,0,2023,10,14,14,49,13,0,0,0,4.08,3.28,4.98,4.07,31.9,21.98,19.12,24.27,18.35,864.02,-0.96,0.34,9.68,-5.64,2.03,-145.67
